header: 
  seq: 269391
  stamp: 
    secs: 1384863309
    nsecs: 618695727
  frame_id: /torso
name: ['HeadYaw', 'HeadPitch', 'LShoulderPitch', 'LShoulderRoll', 'LElbowYaw', 'LElbowRoll', 'LWristYaw', 'LHand', 'LHipYawPitch', 'LHipRoll', 'LHipPitch', 'LKneePitch', 'LAnklePitch', 'LAnkleRoll', 'RHipYawPitch', 'RHipRoll', 'RHipPitch', 'RKneePitch', 'RAnklePitch', 'RAnkleRoll', 'RShoulderPitch', 'RShoulderRoll', 'RElbowYaw', 'RElbowRoll', 'RWristYaw', 'RHand']
position: [1.0553500652313232, -0.013848066329956055, 0.4049339294433594, 0.6963939666748047, 0.007627964019775391, -0.9525721073150635, -0.2086658477783203, 0.3744000196456909, 0.03685808181762695, -0.12421202659606934, -1.0568840503692627, 2.112546443939209, -1.0769100189208984, 0.1043538972735405, 0.03685808181762695, 0.06907200813293457, -1.0063457489013672, 2.112546443939209, -1.1366519927978516, -0.07512402534484863, 0.40348386764526367, -0.8928298950195312, 0.7378120422363281, 0.7946538925170898, -0.8498780727386475, 0.4907999634742737]
velocity: []
effort: []
---
header: 
  seq: 269392
  stamp: 
    secs: 1384863309
    nsecs: 659239223
  frame_id: /torso
name: ['HeadYaw', 'HeadPitch', 'LShoulderPitch', 'LShoulderRoll', 'LElbowYaw', 'LElbowRoll', 'LWristYaw', 'LHand', 'LHipYawPitch', 'LHipRoll', 'LHipPitch', 'LKneePitch', 'LAnklePitch', 'LAnkleRoll', 'RHipYawPitch', 'RHipRoll', 'RHipPitch', 'RKneePitch', 'RAnklePitch', 'RAnkleRoll', 'RShoulderPitch', 'RShoulderRoll', 'RElbowYaw', 'RElbowRoll', 'RWristYaw', 'RHand']
position: [1.0553500652313232, -0.013848066329956055, 0.4049339294433594, 0.6963939666748047, 0.007627964019775391, -0.9525721073150635, -0.2086658477783203, 0.3744000196456909, 0.0353238582611084, -0.1257460117340088, -1.0568840503692627, 2.112546443939209, -1.0769100189208984, 0.1043538972735405, 0.0353238582611084, 0.06907200813293457, -1.0063457489013672, 2.112546443939209, -1.1366519927978516, -0.07512402534484863, 0.40348386764526367, -0.8943638801574707, 0.7378120422363281, 0.7946538925170898, -0.8498780727386475, 0.4907999634742737]
velocity: []
effort: []
---
header: 
  seq: 269393
  stamp: 
    secs: 1384863309
    nsecs: 698403373
  frame_id: /torso
name: ['HeadYaw', 'HeadPitch', 'LShoulderPitch', 'LShoulderRoll', 'LElbowYaw', 'LElbowRoll', 'LWristYaw', 'LHand', 'LHipYawPitch', 'LHipRoll', 'LHipPitch', 'LKneePitch', 'LAnklePitch', 'LAnkleRoll', 'RHipYawPitch', 'RHipRoll', 'RHipPitch', 'RKneePitch', 'RAnklePitch', 'RAnkleRoll', 'RShoulderPitch', 'RShoulderRoll', 'RElbowYaw', 'RElbowRoll', 'RWristYaw', 'RHand']
position: [1.0553500652313232, -0.0123138427734375, 0.4049339294433594, 0.6963939666748047, 0.007627964019775391, -0.9525721073150635, -0.2086658477783203, 0.3744000196456909, 0.03685808181762695, -0.1257460117340088, -1.0568840503692627, 2.112546443939209, -1.0769100189208984, 0.1043538972735405, 0.03685808181762695, 0.06907200813293457, -1.0063457489013672, 2.112546443939209, -1.1366519927978516, -0.07512402534484863, 0.40348386764526367, -0.8928298950195312, 0.7378120422363281, 0.7946538925170898, -0.8498780727386475, 0.4907999634742737]
velocity: []
effort: []
---
header: 
  seq: 269394
  stamp: 
    secs: 1384863309
    nsecs: 739630220
  frame_id: /torso
name: ['HeadYaw', 'HeadPitch', 'LShoulderPitch', 'LShoulderRoll', 'LElbowYaw', 'LElbowRoll', 'LWristYaw', 'LHand', 'LHipYawPitch', 'LHipRoll', 'LHipPitch', 'LKneePitch', 'LAnklePitch', 'LAnkleRoll', 'RHipYawPitch', 'RHipRoll', 'RHipPitch', 'RKneePitch', 'RAnklePitch', 'RAnkleRoll', 'RShoulderPitch', 'RShoulderRoll', 'RElbowYaw', 'RElbowRoll', 'RWristYaw', 'RHand']
position: [1.0553500652313232, -0.013848066329956055, 0.4049339294433594, 0.6963939666748047, 0.007627964019775391, -0.9525721073150635, -0.2086658477783203, 0.3744000196456909, 0.03685808181762695, -0.1257460117340088, -1.0568840503692627, 2.112546443939209, -1.0769100189208984, 0.1043538972735405, 0.03685808181762695, 0.06907200813293457, -1.0063457489013672, 2.112546443939209, -1.1366519927978516, -0.07512402534484863, 0.40348386764526367, -0.8928298950195312, 0.7378120422363281, 0.7946538925170898, -0.8498780727386475, 0.4907999634742737]
velocity: []
effort: []
---
header: 
  seq: 269395
  stamp: 
    secs: 1384863309
    nsecs: 778124849
  frame_id: /torso
name: ['HeadYaw', 'HeadPitch', 'LShoulderPitch', 'LShoulderRoll', 'LElbowYaw', 'LElbowRoll', 'LWristYaw', 'LHand', 'LHipYawPitch', 'LHipRoll', 'LHipPitch', 'LKneePitch', 'LAnklePitch', 'LAnkleRoll', 'RHipYawPitch', 'RHipRoll', 'RHipPitch', 'RKneePitch', 'RAnklePitch', 'RAnkleRoll', 'RShoulderPitch', 'RShoulderRoll', 'RElbowYaw', 'RElbowRoll', 'RWristYaw', 'RHand']
position: [1.0553500652313232, -0.013848066329956055, 0.4049339294433594, 0.6963939666748047, 0.007627964019775391, -0.9525721073150635, -0.2086658477783203, 0.3744000196456909, 0.03685808181762695, -0.1257460117340088, -1.0584180355072021, 2.112546443939209, -1.0769100189208984, 0.1043538972735405, 0.03685808181762695, 0.06907200813293457, -1.0063457489013672, 2.112546443939209, -1.1366519927978516, -0.07512402534484863, 0.40348386764526367, -0.8928298950195312, 0.7378120422363281, 0.7946538925170898, -0.8498780727386475, 0.4907999634742737]
velocity: []
effort: []
---
header: 
  seq: 269396
  stamp: 
    secs: 1384863309
    nsecs: 817457498
  frame_id: /torso
name: ['HeadYaw', 'HeadPitch', 'LShoulderPitch', 'LShoulderRoll', 'LElbowYaw', 'LElbowRoll', 'LWristYaw', 'LHand', 'LHipYawPitch', 'LHipRoll', 'LHipPitch', 'LKneePitch', 'LAnklePitch', 'LAnkleRoll', 'RHipYawPitch', 'RHipRoll', 'RHipPitch', 'RKneePitch', 'RAnklePitch', 'RAnkleRoll', 'RShoulderPitch', 'RShoulderRoll', 'RElbowYaw', 'RElbowRoll', 'RWristYaw', 'RHand']
position: [1.0553500652313232, -0.0123138427734375, 0.4049339294433594, 0.6963939666748047, 0.007627964019775391, -0.9525721073150635, -0.2086658477783203, 0.37400001287460327, 0.03685808181762695, -0.1257460117340088, -1.0584180355072021, 2.112546443939209, -1.078444004058838, 0.1043538972735405, 0.03685808181762695, 0.06907200813293457, -1.0063457489013672, 2.112546443939209, -1.1366519927978516, -0.07512402534484863, 0.40348386764526367, -0.8928298950195312, 0.7393460273742676, 0.7946538925170898, -0.8514120578765869, 0.4907999634742737]
velocity: []
effort: []
---
header: 
  seq: 269397
  stamp: 
    secs: 1384863309
    nsecs: 857864238
  frame_id: /torso
name: ['HeadYaw', 'HeadPitch', 'LShoulderPitch', 'LShoulderRoll', 'LElbowYaw', 'LElbowRoll', 'LWristYaw', 'LHand', 'LHipYawPitch', 'LHipRoll', 'LHipPitch', 'LKneePitch', 'LAnklePitch', 'LAnkleRoll', 'RHipYawPitch', 'RHipRoll', 'RHipPitch', 'RKneePitch', 'RAnklePitch', 'RAnkleRoll', 'RShoulderPitch', 'RShoulderRoll', 'RElbowYaw', 'RElbowRoll', 'RWristYaw', 'RHand']
position: [1.0553500652313232, -0.013848066329956055, 0.4049339294433594, 0.6963939666748047, 0.007627964019775391, -0.9525721073150635, -0.2086658477783203, 0.3744000196456909, 0.03685808181762695, -0.1257460117340088, -1.0568840503692627, 2.112546443939209, -1.0769100189208984, 0.1043538972735405, 0.03685808181762695, 0.06907200813293457, -1.0063457489013672, 2.112546443939209, -1.1366519927978516, -0.07512402534484863, 0.40348386764526367, -0.8928298950195312, 0.7378120422363281, 0.7946538925170898, -0.8498780727386475, 0.4907999634742737]
velocity: []
effort: []
---
header: 
  seq: 269398
  stamp: 
    secs: 1384863309
    nsecs: 898219505
  frame_id: /torso
name: ['HeadYaw', 'HeadPitch', 'LShoulderPitch', 'LShoulderRoll', 'LElbowYaw', 'LElbowRoll', 'LWristYaw', 'LHand', 'LHipYawPitch', 'LHipRoll', 'LHipPitch', 'LKneePitch', 'LAnklePitch', 'LAnkleRoll', 'RHipYawPitch', 'RHipRoll', 'RHipPitch', 'RKneePitch', 'RAnklePitch', 'RAnkleRoll', 'RShoulderPitch', 'RShoulderRoll', 'RElbowYaw', 'RElbowRoll', 'RWristYaw', 'RHand']
position: [1.0553500652313232, -0.013848066329956055, 0.4049339294433594, 0.6963939666748047, 0.007627964019775391, -0.9525721073150635, -0.2086658477783203, 0.3744000196456909, 0.03685808181762695, -0.1257460117340088, -1.0568840503692627, 2.112546443939209, -1.078444004058838, 0.1043538972735405, 0.03685808181762695, 0.06907200813293457, -1.0063457489013672, 2.112546443939209, -1.1366519927978516, -0.07512402534484863, 0.40348386764526367, -0.8943638801574707, 0.7378120422363281, 0.7946538925170898, -0.8498780727386475, 0.4907999634742737]
velocity: []
effort: []
---
header: 
  seq: 269399
  stamp: 
    secs: 1384863309
    nsecs: 939542981
  frame_id: /torso
name: ['HeadYaw', 'HeadPitch', 'LShoulderPitch', 'LShoulderRoll', 'LElbowYaw', 'LElbowRoll', 'LWristYaw', 'LHand', 'LHipYawPitch', 'LHipRoll', 'LHipPitch', 'LKneePitch', 'LAnklePitch', 'LAnkleRoll', 'RHipYawPitch', 'RHipRoll', 'RHipPitch', 'RKneePitch', 'RAnklePitch', 'RAnkleRoll', 'RShoulderPitch', 'RShoulderRoll', 'RElbowYaw', 'RElbowRoll', 'RWristYaw', 'RHand']
position: [1.0553500652313232, -0.013848066329956055, 0.4049339294433594, 0.6963939666748047, 0.007627964019775391, -0.9525721073150635, -0.2086658477783203, 0.37400001287460327, 0.03685808181762695, -0.12421202659606934, -1.0568840503692627, 2.112546443939209, -1.0769100189208984, 0.1043538972735405, 0.03685808181762695, 0.06907200813293457, -1.0063457489013672, 2.112546443939209, -1.1366519927978516, -0.07512402534484863, 0.40348386764526367, -0.8928298950195312, 0.7378120422363281, 0.7946538925170898, -0.8498780727386475, 0.4907999634742737]
velocity: []
effort: []
---
header: 
  seq: 269400
  stamp: 
    secs: 1384863309
    nsecs: 978498334
  frame_id: /torso
name: ['HeadYaw', 'HeadPitch', 'LShoulderPitch', 'LShoulderRoll', 'LElbowYaw', 'LElbowRoll', 'LWristYaw', 'LHand', 'LHipYawPitch', 'LHipRoll', 'LHipPitch', 'LKneePitch', 'LAnklePitch', 'LAnkleRoll', 'RHipYawPitch', 'RHipRoll', 'RHipPitch', 'RKneePitch', 'RAnklePitch', 'RAnkleRoll', 'RShoulderPitch', 'RShoulderRoll', 'RElbowYaw', 'RElbowRoll', 'RWristYaw', 'RHand']
position: [1.0553500652313232, -0.013848066329956055, 0.4049339294433594, 0.6963939666748047, 0.007627964019775391, -0.9525721073150635, -0.2086658477783203, 0.3744000196456909, 0.03685808181762695, -0.1257460117340088, -1.0568840503692627, 2.112546443939209, -1.078444004058838, 0.1043538972735405, 0.03685808181762695, 0.06907200813293457, -1.0063457489013672, 2.112546443939209, -1.1366519927978516, -0.07512402534484863, 0.40348386764526367, -0.8928298950195312, 0.7378120422363281, 0.7946538925170898, -0.8498780727386475, 0.4907999634742737]
velocity: []
effort: []
---
header: 
  seq: 269401
  stamp: 
    secs: 1384863310
    nsecs: 18245750
  frame_id: /torso
name: ['HeadYaw', 'HeadPitch', 'LShoulderPitch', 'LShoulderRoll', 'LElbowYaw', 'LElbowRoll', 'LWristYaw', 'LHand', 'LHipYawPitch', 'LHipRoll', 'LHipPitch', 'LKneePitch', 'LAnklePitch', 'LAnkleRoll', 'RHipYawPitch', 'RHipRoll', 'RHipPitch', 'RKneePitch', 'RAnklePitch', 'RAnkleRoll', 'RShoulderPitch', 'RShoulderRoll', 'RElbowYaw', 'RElbowRoll', 'RWristYaw', 'RHand']
position: [1.0538160800933838, -0.013848066329956055, 0.4049339294433594, 0.6963939666748047, 0.007627964019775391, -0.9525721073150635, -0.2086658477783203, 0.3744000196456909, 0.03685808181762695, -0.1257460117340088, -1.0568840503692627, 2.112546443939209, -1.0769100189208984, 0.1043538972735405, 0.03685808181762695, 0.06907200813293457, -1.0063457489013672, 2.112546443939209, -1.1366519927978516, -0.07512402534484863, 0.40348386764526367, -0.8928298950195312, 0.7378120422363281, 0.7946538925170898, -0.8498780727386475, 0.4907999634742737]
velocity: []
effort: []
---
header: 
  seq: 269402
  stamp: 
    secs: 1384863310
    nsecs: 56975822
  frame_id: /torso
name: ['HeadYaw', 'HeadPitch', 'LShoulderPitch', 'LShoulderRoll', 'LElbowYaw', 'LElbowRoll', 'LWristYaw', 'LHand', 'LHipYawPitch', 'LHipRoll', 'LHipPitch', 'LKneePitch', 'LAnklePitch', 'LAnkleRoll', 'RHipYawPitch', 'RHipRoll', 'RHipPitch', 'RKneePitch', 'RAnklePitch', 'RAnkleRoll', 'RShoulderPitch', 'RShoulderRoll', 'RElbowYaw', 'RElbowRoll', 'RWristYaw', 'RHand']
position: [1.0553500652313232, -0.013848066329956055, 0.4049339294433594, 0.6963939666748047, 0.007627964019775391, -0.9525721073150635, -0.2086658477783203, 0.3744000196456909, 0.03685808181762695, -0.1257460117340088, -1.0584180355072021, 2.112546443939209, -1.0769100189208984, 0.1043538972735405, 0.03685808181762695, 0.06907200813293457, -1.0063457489013672, 2.112546443939209, -1.1366519927978516, -0.07512402534484863, 0.40348386764526367, -0.8928298950195312, 0.7378120422363281, 0.7946538925170898, -0.8498780727386475, 0.4907999634742737]
velocity: []
effort: []
---
header: 
  seq: 269403
  stamp: 
    secs: 1384863310
    nsecs: 97718687
  frame_id: /torso
name: ['HeadYaw', 'HeadPitch', 'LShoulderPitch', 'LShoulderRoll', 'LElbowYaw', 'LElbowRoll', 'LWristYaw', 'LHand', 'LHipYawPitch', 'LHipRoll', 'LHipPitch', 'LKneePitch', 'LAnklePitch', 'LAnkleRoll', 'RHipYawPitch', 'RHipRoll', 'RHipPitch', 'RKneePitch', 'RAnklePitch', 'RAnkleRoll', 'RShoulderPitch', 'RShoulderRoll', 'RElbowYaw', 'RElbowRoll', 'RWristYaw', 'RHand']
position: [1.0553500652313232, -0.013848066329956055, 0.4049339294433594, 0.6963939666748047, 0.007627964019775391, -0.9525721073150635, -0.2086658477783203, 0.3744000196456909, 0.03685808181762695, -0.1257460117340088, -1.0568840503692627, 2.112546443939209, -1.0769100189208984, 0.1043538972735405, 0.03685808181762695, 0.06907200813293457, -1.0063457489013672, 2.112546443939209, -1.1366519927978516, -0.07512402534484863, 0.40348386764526367, -0.8928298950195312, 0.7378120422363281, 0.7946538925170898, -0.8498780727386475, 0.4907999634742737]
velocity: []
effort: []
---
header: 
  seq: 269404
  stamp: 
    secs: 1384863310
    nsecs: 140837426
  frame_id: /torso
name: ['HeadYaw', 'HeadPitch', 'LShoulderPitch', 'LShoulderRoll', 'LElbowYaw', 'LElbowRoll', 'LWristYaw', 'LHand', 'LHipYawPitch', 'LHipRoll', 'LHipPitch', 'LKneePitch', 'LAnklePitch', 'LAnkleRoll', 'RHipYawPitch', 'RHipRoll', 'RHipPitch', 'RKneePitch', 'RAnklePitch', 'RAnkleRoll', 'RShoulderPitch', 'RShoulderRoll', 'RElbowYaw', 'RElbowRoll', 'RWristYaw', 'RHand']
position: [1.0553500652313232, -0.0123138427734375, 0.4049339294433594, 0.6963939666748047, 0.007627964019775391, -0.9525721073150635, -0.2086658477783203, 0.3744000196456909, 0.03685808181762695, -0.1257460117340088, -1.0584180355072021, 2.112546443939209, -1.0769100189208984, 0.1043538972735405, 0.03685808181762695, 0.06907200813293457, -1.0063457489013672, 2.112546443939209, -1.1366519927978516, -0.07512402534484863, 0.40348386764526367, -0.8928298950195312, 0.7378120422363281, 0.7946538925170898, -0.8498780727386475, 0.4907999634742737]
velocity: []
effort: []
---
header: 
  seq: 269405
  stamp: 
    secs: 1384863310
    nsecs: 177877558
  frame_id: /torso
name: ['HeadYaw', 'HeadPitch', 'LShoulderPitch', 'LShoulderRoll', 'LElbowYaw', 'LElbowRoll', 'LWristYaw', 'LHand', 'LHipYawPitch', 'LHipRoll', 'LHipPitch', 'LKneePitch', 'LAnklePitch', 'LAnkleRoll', 'RHipYawPitch', 'RHipRoll', 'RHipPitch', 'RKneePitch', 'RAnklePitch', 'RAnkleRoll', 'RShoulderPitch', 'RShoulderRoll', 'RElbowYaw', 'RElbowRoll', 'RWristYaw', 'RHand']
position: [1.0553500652313232, -0.013848066329956055, 0.4049339294433594, 0.6963939666748047, 0.007627964019775391, -0.9525721073150635, -0.2086658477783203, 0.3744000196456909, 0.0353238582611084, -0.1257460117340088, -1.0568840503692627, 2.112546443939209, -1.0769100189208984, 0.1043538972735405, 0.0353238582611084, 0.06907200813293457, -1.0063457489013672, 2.112546443939209, -1.1366519927978516, -0.07512402534484863, 0.40348386764526367, -0.8928298950195312, 0.7378120422363281, 0.7946538925170898, -0.8498780727386475, 0.4907999634742737]
velocity: []
effort: []
---
header: 
  seq: 269406
  stamp: 
    secs: 1384863310
    nsecs: 218245571
  frame_id: /torso
name: ['HeadYaw', 'HeadPitch', 'LShoulderPitch', 'LShoulderRoll', 'LElbowYaw', 'LElbowRoll', 'LWristYaw', 'LHand', 'LHipYawPitch', 'LHipRoll', 'LHipPitch', 'LKneePitch', 'LAnklePitch', 'LAnkleRoll', 'RHipYawPitch', 'RHipRoll', 'RHipPitch', 'RKneePitch', 'RAnklePitch', 'RAnkleRoll', 'RShoulderPitch', 'RShoulderRoll', 'RElbowYaw', 'RElbowRoll', 'RWristYaw', 'RHand']
position: [1.0538160800933838, -0.013848066329956055, 0.4049339294433594, 0.6963939666748047, 0.007627964019775391, -0.9525721073150635, -0.2086658477783203, 0.3744000196456909, 0.0353238582611084, -0.1257460117340088, -1.0584180355072021, 2.112546443939209, -1.0769100189208984, 0.1043538972735405, 0.0353238582611084, 0.06907200813293457, -1.0063457489013672, 2.112546443939209, -1.1366519927978516, -0.07512402534484863, 0.40348386764526367, -0.8928298950195312, 0.7378120422363281, 0.7946538925170898, -0.8498780727386475, 0.4907999634742737]
velocity: []
effort: []
---
header: 
  seq: 269407
  stamp: 
    secs: 1384863310
    nsecs: 258872983
  frame_id: /torso
name: ['HeadYaw', 'HeadPitch', 'LShoulderPitch', 'LShoulderRoll', 'LElbowYaw', 'LElbowRoll', 'LWristYaw', 'LHand', 'LHipYawPitch', 'LHipRoll', 'LHipPitch', 'LKneePitch', 'LAnklePitch', 'LAnkleRoll', 'RHipYawPitch', 'RHipRoll', 'RHipPitch', 'RKneePitch', 'RAnklePitch', 'RAnkleRoll', 'RShoulderPitch', 'RShoulderRoll', 'RElbowYaw', 'RElbowRoll', 'RWristYaw', 'RHand']
position: [1.0553500652313232, -0.013848066329956055, 0.40646815299987793, 0.6963939666748047, 0.007627964019775391, -0.9525721073150635, -0.2086658477783203, 0.3744000196456909, 0.03685808181762695, -0.1257460117340088, -1.0584180355072021, 2.112546443939209, -1.078444004058838, 0.1043538972735405, 0.03685808181762695, 0.06907200813293457, -1.0063457489013672, 2.112546443939209, -1.1366519927978516, -0.07512402534484863, 0.40348386764526367, -0.8928298950195312, 0.7378120422363281, 0.7946538925170898, -0.8498780727386475, 0.4907999634742737]
velocity: []
effort: []
---
header: 
  seq: 269408
  stamp: 
    secs: 1384863310
    nsecs: 297851698
  frame_id: /torso
name: ['HeadYaw', 'HeadPitch', 'LShoulderPitch', 'LShoulderRoll', 'LElbowYaw', 'LElbowRoll', 'LWristYaw', 'LHand', 'LHipYawPitch', 'LHipRoll', 'LHipPitch', 'LKneePitch', 'LAnklePitch', 'LAnkleRoll', 'RHipYawPitch', 'RHipRoll', 'RHipPitch', 'RKneePitch', 'RAnklePitch', 'RAnkleRoll', 'RShoulderPitch', 'RShoulderRoll', 'RElbowYaw', 'RElbowRoll', 'RWristYaw', 'RHand']
position: [1.0553500652313232, -0.013848066329956055, 0.4049339294433594, 0.6963939666748047, 0.007627964019775391, -0.9525721073150635, -0.2086658477783203, 0.3744000196456909, 0.03685808181762695, -0.1257460117340088, -1.0584180355072021, 2.112546443939209, -1.0769100189208984, 0.1043538972735405, 0.03685808181762695, 0.06907200813293457, -1.0063457489013672, 2.112546443939209, -1.1366519927978516, -0.07512402534484863, 0.40348386764526367, -0.8943638801574707, 0.7378120422363281, 0.7946538925170898, -0.8498780727386475, 0.4907999634742737]
velocity: []
effort: []
---
header: 
  seq: 269409
  stamp: 
    secs: 1384863310
    nsecs: 337888302
  frame_id: /torso
name: ['HeadYaw', 'HeadPitch', 'LShoulderPitch', 'LShoulderRoll', 'LElbowYaw', 'LElbowRoll', 'LWristYaw', 'LHand', 'LHipYawPitch', 'LHipRoll', 'LHipPitch', 'LKneePitch', 'LAnklePitch', 'LAnkleRoll', 'RHipYawPitch', 'RHipRoll', 'RHipPitch', 'RKneePitch', 'RAnklePitch', 'RAnkleRoll', 'RShoulderPitch', 'RShoulderRoll', 'RElbowYaw', 'RElbowRoll', 'RWristYaw', 'RHand']
position: [1.0553500652313232, -0.0123138427734375, 0.4049339294433594, 0.6963939666748047, 0.007627964019775391, -0.9525721073150635, -0.2086658477783203, 0.3744000196456909, 0.0353238582611084, -0.1257460117340088, -1.0568840503692627, 2.112546443939209, -1.0769100189208984, 0.1043538972735405, 0.0353238582611084, 0.06907200813293457, -1.0063457489013672, 2.112546443939209, -1.1366519927978516, -0.07512402534484863, 0.40348386764526367, -0.8928298950195312, 0.7378120422363281, 0.7946538925170898, -0.8498780727386475, 0.4907999634742737]
velocity: []
effort: []
---
header: 
  seq: 269410
  stamp: 
    secs: 1384863310
    nsecs: 378407528
  frame_id: /torso
name: ['HeadYaw', 'HeadPitch', 'LShoulderPitch', 'LShoulderRoll', 'LElbowYaw', 'LElbowRoll', 'LWristYaw', 'LHand', 'LHipYawPitch', 'LHipRoll', 'LHipPitch', 'LKneePitch', 'LAnklePitch', 'LAnkleRoll', 'RHipYawPitch', 'RHipRoll', 'RHipPitch', 'RKneePitch', 'RAnklePitch', 'RAnkleRoll', 'RShoulderPitch', 'RShoulderRoll', 'RElbowYaw', 'RElbowRoll', 'RWristYaw', 'RHand']
position: [1.0553500652313232, -0.013848066329956055, 0.4049339294433594, 0.6963939666748047, 0.007627964019775391, -0.9525721073150635, -0.2086658477783203, 0.3744000196456909, 0.03685808181762695, -0.1257460117340088, -1.0584180355072021, 2.112546443939209, -1.078444004058838, 0.1043538972735405, 0.03685808181762695, 0.06907200813293457, -1.0063457489013672, 2.112546443939209, -1.1366519927978516, -0.07512402534484863, 0.40348386764526367, -0.8928298950195312, 0.7378120422363281, 0.7946538925170898, -0.8498780727386475, 0.4907999634742737]
velocity: []
effort: []
---
header: 
  seq: 269411
  stamp: 
    secs: 1384863310
    nsecs: 418476574
  frame_id: /torso
name: ['HeadYaw', 'HeadPitch', 'LShoulderPitch', 'LShoulderRoll', 'LElbowYaw', 'LElbowRoll', 'LWristYaw', 'LHand', 'LHipYawPitch', 'LHipRoll', 'LHipPitch', 'LKneePitch', 'LAnklePitch', 'LAnkleRoll', 'RHipYawPitch', 'RHipRoll', 'RHipPitch', 'RKneePitch', 'RAnklePitch', 'RAnkleRoll', 'RShoulderPitch', 'RShoulderRoll', 'RElbowYaw', 'RElbowRoll', 'RWristYaw', 'RHand']
position: [1.0553500652313232, -0.013848066329956055, 0.4049339294433594, 0.6963939666748047, 0.007627964019775391, -0.9525721073150635, -0.2086658477783203, 0.37400001287460327, 0.03685808181762695, -0.1257460117340088, -1.0584180355072021, 2.112546443939209, -1.0769100189208984, 0.1043538972735405, 0.03685808181762695, 0.06907200813293457, -1.0063457489013672, 2.112546443939209, -1.1366519927978516, -0.07512402534484863, 0.40348386764526367, -0.8943638801574707, 0.7378120422363281, 0.7946538925170898, -0.8498780727386475, 0.4907999634742737]
velocity: []
effort: []
---
header: 
  seq: 269412
  stamp: 
    secs: 1384863310
    nsecs: 457954778
  frame_id: /torso
name: ['HeadYaw', 'HeadPitch', 'LShoulderPitch', 'LShoulderRoll', 'LElbowYaw', 'LElbowRoll', 'LWristYaw', 'LHand', 'LHipYawPitch', 'LHipRoll', 'LHipPitch', 'LKneePitch', 'LAnklePitch', 'LAnkleRoll', 'RHipYawPitch', 'RHipRoll', 'RHipPitch', 'RKneePitch', 'RAnklePitch', 'RAnkleRoll', 'RShoulderPitch', 'RShoulderRoll', 'RElbowYaw', 'RElbowRoll', 'RWristYaw', 'RHand']
position: [1.0553500652313232, -0.013848066329956055, 0.4049339294433594, 0.6963939666748047, 0.007627964019775391, -0.9525721073150635, -0.2086658477783203, 0.3744000196456909, 0.03685808181762695, -0.1257460117340088, -1.0568840503692627, 2.112546443939209, -1.0769100189208984, 0.1043538972735405, 0.03685808181762695, 0.06907200813293457, -1.0063457489013672, 2.112546443939209, -1.1366519927978516, -0.07512402534484863, 0.40348386764526367, -0.8928298950195312, 0.7378120422363281, 0.7946538925170898, -0.8498780727386475, 0.4907999634742737]
velocity: []
effort: []
---
header: 
  seq: 269413
  stamp: 
    secs: 1384863310
    nsecs: 498076522
  frame_id: /torso
name: ['HeadYaw', 'HeadPitch', 'LShoulderPitch', 'LShoulderRoll', 'LElbowYaw', 'LElbowRoll', 'LWristYaw', 'LHand', 'LHipYawPitch', 'LHipRoll', 'LHipPitch', 'LKneePitch', 'LAnklePitch', 'LAnkleRoll', 'RHipYawPitch', 'RHipRoll', 'RHipPitch', 'RKneePitch', 'RAnklePitch', 'RAnkleRoll', 'RShoulderPitch', 'RShoulderRoll', 'RElbowYaw', 'RElbowRoll', 'RWristYaw', 'RHand']
position: [1.0553500652313232, -0.0123138427734375, 0.4049339294433594, 0.6963939666748047, 0.007627964019775391, -0.9525721073150635, -0.2086658477783203, 0.3744000196456909, 0.0353238582611084, -0.1257460117340088, -1.0568840503692627, 2.112546443939209, -1.078444004058838, 0.1043538972735405, 0.0353238582611084, 0.06907200813293457, -1.0063457489013672, 2.112546443939209, -1.1366519927978516, -0.07512402534484863, 0.40348386764526367, -0.8928298950195312, 0.7378120422363281, 0.7946538925170898, -0.8498780727386475, 0.4907999634742737]
velocity: []
effort: []
---
header: 
  seq: 269414
  stamp: 
    secs: 1384863310
    nsecs: 538759425
  frame_id: /torso
name: ['HeadYaw', 'HeadPitch', 'LShoulderPitch', 'LShoulderRoll', 'LElbowYaw', 'LElbowRoll', 'LWristYaw', 'LHand', 'LHipYawPitch', 'LHipRoll', 'LHipPitch', 'LKneePitch', 'LAnklePitch', 'LAnkleRoll', 'RHipYawPitch', 'RHipRoll', 'RHipPitch', 'RKneePitch', 'RAnklePitch', 'RAnkleRoll', 'RShoulderPitch', 'RShoulderRoll', 'RElbowYaw', 'RElbowRoll', 'RWristYaw', 'RHand']
position: [1.0553500652313232, -0.013848066329956055, 0.4049339294433594, 0.6963939666748047, 0.007627964019775391, -0.9525721073150635, -0.2086658477783203, 0.3744000196456909, 0.03685808181762695, -0.1257460117340088, -1.0584180355072021, 2.112546443939209, -1.0769100189208984, 0.1043538972735405, 0.03685808181762695, 0.06907200813293457, -1.0063457489013672, 2.112546443939209, -1.1366519927978516, -0.07512402534484863, 0.40348386764526367, -0.8928298950195312, 0.7378120422363281, 0.7946538925170898, -0.8498780727386475, 0.4907999634742737]
velocity: []
effort: []
---
header: 
  seq: 269415
  stamp: 
    secs: 1384863310
    nsecs: 577498052
  frame_id: /torso
name: ['HeadYaw', 'HeadPitch', 'LShoulderPitch', 'LShoulderRoll', 'LElbowYaw', 'LElbowRoll', 'LWristYaw', 'LHand', 'LHipYawPitch', 'LHipRoll', 'LHipPitch', 'LKneePitch', 'LAnklePitch', 'LAnkleRoll', 'RHipYawPitch', 'RHipRoll', 'RHipPitch', 'RKneePitch', 'RAnklePitch', 'RAnkleRoll', 'RShoulderPitch', 'RShoulderRoll', 'RElbowYaw', 'RElbowRoll', 'RWristYaw', 'RHand']
position: [1.0553500652313232, -0.013848066329956055, 0.4049339294433594, 0.6963939666748047, 0.007627964019775391, -0.9525721073150635, -0.2086658477783203, 0.3744000196456909, 0.03685808181762695, -0.1257460117340088, -1.0568840503692627, 2.112546443939209, -1.0769100189208984, 0.1043538972735405, 0.03685808181762695, 0.06907200813293457, -1.0063457489013672, 2.112546443939209, -1.1366519927978516, -0.07512402534484863, 0.40348386764526367, -0.8928298950195312, 0.7378120422363281, 0.7946538925170898, -0.8498780727386475, 0.4907999634742737]
velocity: []
effort: []
---
header: 
  seq: 269416
  stamp: 
    secs: 1384863310
    nsecs: 618703771
  frame_id: /torso
name: ['HeadYaw', 'HeadPitch', 'LShoulderPitch', 'LShoulderRoll', 'LElbowYaw', 'LElbowRoll', 'LWristYaw', 'LHand', 'LHipYawPitch', 'LHipRoll', 'LHipPitch', 'LKneePitch', 'LAnklePitch', 'LAnkleRoll', 'RHipYawPitch', 'RHipRoll', 'RHipPitch', 'RKneePitch', 'RAnklePitch', 'RAnkleRoll', 'RShoulderPitch', 'RShoulderRoll', 'RElbowYaw', 'RElbowRoll', 'RWristYaw', 'RHand']
position: [1.0553500652313232, -0.013848066329956055, 0.4049339294433594, 0.6963939666748047, 0.009161949157714844, -0.9525721073150635, -0.2086658477783203, 0.37400001287460327, 0.03685808181762695, -0.1257460117340088, -1.0568840503692627, 2.112546443939209, -1.0769100189208984, 0.1043538972735405, 0.03685808181762695, 0.06907200813293457, -1.0063457489013672, 2.112546443939209, -1.1366519927978516, -0.07512402534484863, 0.40348386764526367, -0.8928298950195312, 0.7378120422363281, 0.7946538925170898, -0.8498780727386475, 0.4907999634742737]
velocity: []
effort: []
---
header: 
  seq: 269417
  stamp: 
    secs: 1384863310
    nsecs: 656996447
  frame_id: /torso
name: ['HeadYaw', 'HeadPitch', 'LShoulderPitch', 'LShoulderRoll', 'LElbowYaw', 'LElbowRoll', 'LWristYaw', 'LHand', 'LHipYawPitch', 'LHipRoll', 'LHipPitch', 'LKneePitch', 'LAnklePitch', 'LAnkleRoll', 'RHipYawPitch', 'RHipRoll', 'RHipPitch', 'RKneePitch', 'RAnklePitch', 'RAnkleRoll', 'RShoulderPitch', 'RShoulderRoll', 'RElbowYaw', 'RElbowRoll', 'RWristYaw', 'RHand']
position: [1.0553500652313232, -0.013848066329956055, 0.4049339294433594, 0.6963939666748047, 0.007627964019775391, -0.9525721073150635, -0.2086658477783203, 0.3744000196456909, 0.0353238582611084, -0.1257460117340088, -1.0568840503692627, 2.112546443939209, -1.078444004058838, 0.1043538972735405, 0.0353238582611084, 0.06907200813293457, -1.0063457489013672, 2.112546443939209, -1.1366519927978516, -0.07512402534484863, 0.40348386764526367, -0.8928298950195312, 0.7378120422363281, 0.7946538925170898, -0.8498780727386475, 0.4907999634742737]
velocity: []
effort: []
---
header: 
  seq: 269418
  stamp: 
    secs: 1384863310
    nsecs: 699486453
  frame_id: /torso
name: ['HeadYaw', 'HeadPitch', 'LShoulderPitch', 'LShoulderRoll', 'LElbowYaw', 'LElbowRoll', 'LWristYaw', 'LHand', 'LHipYawPitch', 'LHipRoll', 'LHipPitch', 'LKneePitch', 'LAnklePitch', 'LAnkleRoll', 'RHipYawPitch', 'RHipRoll', 'RHipPitch', 'RKneePitch', 'RAnklePitch', 'RAnkleRoll', 'RShoulderPitch', 'RShoulderRoll', 'RElbowYaw', 'RElbowRoll', 'RWristYaw', 'RHand']
position: [1.0553500652313232, -0.013848066329956055, 0.4049339294433594, 0.6963939666748047, 0.007627964019775391, -0.9525721073150635, -0.2086658477783203, 0.3744000196456909, 0.03685808181762695, -0.1257460117340088, -1.0584180355072021, 2.112546443939209, -1.0769100189208984, 0.1043538972735405, 0.03685808181762695, 0.06907200813293457, -1.0063457489013672, 2.112546443939209, -1.1366519927978516, -0.07512402534484863, 0.40348386764526367, -0.8928298950195312, 0.7378120422363281, 0.7946538925170898, -0.8498780727386475, 0.4907999634742737]
velocity: []
effort: []
---
header: 
  seq: 269419
  stamp: 
    secs: 1384863310
    nsecs: 738264578
  frame_id: /torso
name: ['HeadYaw', 'HeadPitch', 'LShoulderPitch', 'LShoulderRoll', 'LElbowYaw', 'LElbowRoll', 'LWristYaw', 'LHand', 'LHipYawPitch', 'LHipRoll', 'LHipPitch', 'LKneePitch', 'LAnklePitch', 'LAnkleRoll', 'RHipYawPitch', 'RHipRoll', 'RHipPitch', 'RKneePitch', 'RAnklePitch', 'RAnkleRoll', 'RShoulderPitch', 'RShoulderRoll', 'RElbowYaw', 'RElbowRoll', 'RWristYaw', 'RHand']
position: [1.0538160800933838, -0.013848066329956055, 0.4049339294433594, 0.6963939666748047, 0.007627964019775391, -0.9525721073150635, -0.2086658477783203, 0.3744000196456909, 0.03685808181762695, -0.1257460117340088, -1.0568840503692627, 2.112546443939209, -1.078444004058838, 0.1043538972735405, 0.03685808181762695, 0.06907200813293457, -1.0063457489013672, 2.112546443939209, -1.1366519927978516, -0.07512402534484863, 0.40348386764526367, -0.8928298950195312, 0.7378120422363281, 0.7946538925170898, -0.8514120578765869, 0.4907999634742737]
velocity: []
effort: []
---
header: 
  seq: 269420
  stamp: 
    secs: 1384863310
    nsecs: 778019362
  frame_id: /torso
name: ['HeadYaw', 'HeadPitch', 'LShoulderPitch', 'LShoulderRoll', 'LElbowYaw', 'LElbowRoll', 'LWristYaw', 'LHand', 'LHipYawPitch', 'LHipRoll', 'LHipPitch', 'LKneePitch', 'LAnklePitch', 'LAnkleRoll', 'RHipYawPitch', 'RHipRoll', 'RHipPitch', 'RKneePitch', 'RAnklePitch', 'RAnkleRoll', 'RShoulderPitch', 'RShoulderRoll', 'RElbowYaw', 'RElbowRoll', 'RWristYaw', 'RHand']
position: [1.0553500652313232, -0.013848066329956055, 0.4049339294433594, 0.6963939666748047, 0.007627964019775391, -0.9525721073150635, -0.2086658477783203, 0.3744000196456909, 0.0353238582611084, -0.1257460117340088, -1.0568840503692627, 2.112546443939209, -1.0769100189208984, 0.1043538972735405, 0.0353238582611084, 0.06907200813293457, -1.0063457489013672, 2.112546443939209, -1.1366519927978516, -0.07512402534484863, 0.40348386764526367, -0.8928298950195312, 0.7378120422363281, 0.7946538925170898, -0.8498780727386475, 0.4907999634742737]
velocity: []
effort: []
---
header: 
  seq: 269421
  stamp: 
    secs: 1384863310
    nsecs: 817475739
  frame_id: /torso
name: ['HeadYaw', 'HeadPitch', 'LShoulderPitch', 'LShoulderRoll', 'LElbowYaw', 'LElbowRoll', 'LWristYaw', 'LHand', 'LHipYawPitch', 'LHipRoll', 'LHipPitch', 'LKneePitch', 'LAnklePitch', 'LAnkleRoll', 'RHipYawPitch', 'RHipRoll', 'RHipPitch', 'RKneePitch', 'RAnklePitch', 'RAnkleRoll', 'RShoulderPitch', 'RShoulderRoll', 'RElbowYaw', 'RElbowRoll', 'RWristYaw', 'RHand']
position: [1.0553500652313232, -0.013848066329956055, 0.4049339294433594, 0.6948599815368652, 0.007627964019775391, -0.9525721073150635, -0.2086658477783203, 0.3744000196456909, 0.03685808181762695, -0.1257460117340088, -1.0584180355072021, 2.112546443939209, -1.078444004058838, 0.1043538972735405, 0.03685808181762695, 0.06907200813293457, -1.0063457489013672, 2.112546443939209, -1.1366519927978516, -0.07512402534484863, 0.40348386764526367, -0.8928298950195312, 0.7378120422363281, 0.7946538925170898, -0.8498780727386475, 0.4907999634742737]
velocity: []
effort: []
---
header: 
  seq: 269422
  stamp: 
    secs: 1384863310
    nsecs: 857816862
  frame_id: /torso
name: ['HeadYaw', 'HeadPitch', 'LShoulderPitch', 'LShoulderRoll', 'LElbowYaw', 'LElbowRoll', 'LWristYaw', 'LHand', 'LHipYawPitch', 'LHipRoll', 'LHipPitch', 'LKneePitch', 'LAnklePitch', 'LAnkleRoll', 'RHipYawPitch', 'RHipRoll', 'RHipPitch', 'RKneePitch', 'RAnklePitch', 'RAnkleRoll', 'RShoulderPitch', 'RShoulderRoll', 'RElbowYaw', 'RElbowRoll', 'RWristYaw', 'RHand']
position: [1.0553500652313232, -0.013848066329956055, 0.4049339294433594, 0.6963939666748047, 0.007627964019775391, -0.9525721073150635, -0.2086658477783203, 0.3744000196456909, 0.03685808181762695, -0.1257460117340088, -1.0568840503692627, 2.112546443939209, -1.0769100189208984, 0.1043538972735405, 0.03685808181762695, 0.06907200813293457, -1.0063457489013672, 2.112546443939209, -1.1366519927978516, -0.07512402534484863, 0.40348386764526367, -0.8928298950195312, 0.7378120422363281, 0.7946538925170898, -0.8498780727386475, 0.4907999634742737]
velocity: []
effort: []
---
header: 
  seq: 269423
  stamp: 
    secs: 1384863310
    nsecs: 899762192
  frame_id: /torso
name: ['HeadYaw', 'HeadPitch', 'LShoulderPitch', 'LShoulderRoll', 'LElbowYaw', 'LElbowRoll', 'LWristYaw', 'LHand', 'LHipYawPitch', 'LHipRoll', 'LHipPitch', 'LKneePitch', 'LAnklePitch', 'LAnkleRoll', 'RHipYawPitch', 'RHipRoll', 'RHipPitch', 'RKneePitch', 'RAnklePitch', 'RAnkleRoll', 'RShoulderPitch', 'RShoulderRoll', 'RElbowYaw', 'RElbowRoll', 'RWristYaw', 'RHand']
position: [1.0553500652313232, -0.013848066329956055, 0.4049339294433594, 0.6963939666748047, 0.007627964019775391, -0.9525721073150635, -0.2086658477783203, 0.3744000196456909, 0.0353238582611084, -0.1257460117340088, -1.0568840503692627, 2.112546443939209, -1.0769100189208984, 0.1043538972735405, 0.0353238582611084, 0.06907200813293457, -1.0063457489013672, 2.112546443939209, -1.1366519927978516, -0.07512402534484863, 0.40348386764526367, -0.8928298950195312, 0.7378120422363281, 0.7946538925170898, -0.8498780727386475, 0.4907999634742737]
velocity: []
effort: []
---
header: 
  seq: 269424
  stamp: 
    secs: 1384863310
    nsecs: 938440928
  frame_id: /torso
name: ['HeadYaw', 'HeadPitch', 'LShoulderPitch', 'LShoulderRoll', 'LElbowYaw', 'LElbowRoll', 'LWristYaw', 'LHand', 'LHipYawPitch', 'LHipRoll', 'LHipPitch', 'LKneePitch', 'LAnklePitch', 'LAnkleRoll', 'RHipYawPitch', 'RHipRoll', 'RHipPitch', 'RKneePitch', 'RAnklePitch', 'RAnkleRoll', 'RShoulderPitch', 'RShoulderRoll', 'RElbowYaw', 'RElbowRoll', 'RWristYaw', 'RHand']
position: [1.0538160800933838, -0.013848066329956055, 0.40646815299987793, 0.6963939666748047, 0.007627964019775391, -0.9525721073150635, -0.2086658477783203, 0.3744000196456909, 0.03685808181762695, -0.1257460117340088, -1.0568840503692627, 2.112546443939209, -1.078444004058838, 0.1043538972735405, 0.03685808181762695, 0.06907200813293457, -1.0063457489013672, 2.112546443939209, -1.1366519927978516, -0.07512402534484863, 0.40348386764526367, -0.8943638801574707, 0.7378120422363281, 0.7946538925170898, -0.8498780727386475, 0.4907999634742737]
velocity: []
effort: []
---
header: 
  seq: 269425
  stamp: 
    secs: 1384863310
    nsecs: 979015679
  frame_id: /torso
name: ['HeadYaw', 'HeadPitch', 'LShoulderPitch', 'LShoulderRoll', 'LElbowYaw', 'LElbowRoll', 'LWristYaw', 'LHand', 'LHipYawPitch', 'LHipRoll', 'LHipPitch', 'LKneePitch', 'LAnklePitch', 'LAnkleRoll', 'RHipYawPitch', 'RHipRoll', 'RHipPitch', 'RKneePitch', 'RAnklePitch', 'RAnkleRoll', 'RShoulderPitch', 'RShoulderRoll', 'RElbowYaw', 'RElbowRoll', 'RWristYaw', 'RHand']
position: [1.0553500652313232, -0.013848066329956055, 0.4049339294433594, 0.6963939666748047, 0.007627964019775391, -0.9525721073150635, -0.2086658477783203, 0.3744000196456909, 0.03685808181762695, -0.1257460117340088, -1.0568840503692627, 2.112546443939209, -1.0769100189208984, 0.1043538972735405, 0.03685808181762695, 0.06907200813293457, -1.0063457489013672, 2.112546443939209, -1.1366519927978516, -0.07512402534484863, 0.40348386764526367, -0.8928298950195312, 0.7378120422363281, 0.7946538925170898, -0.8498780727386475, 0.4907999634742737]
velocity: []
effort: []
---
header: 
  seq: 269426
  stamp: 
    secs: 1384863311
    nsecs: 18194287
  frame_id: /torso
name: ['HeadYaw', 'HeadPitch', 'LShoulderPitch', 'LShoulderRoll', 'LElbowYaw', 'LElbowRoll', 'LWristYaw', 'LHand', 'LHipYawPitch', 'LHipRoll', 'LHipPitch', 'LKneePitch', 'LAnklePitch', 'LAnkleRoll', 'RHipYawPitch', 'RHipRoll', 'RHipPitch', 'RKneePitch', 'RAnklePitch', 'RAnkleRoll', 'RShoulderPitch', 'RShoulderRoll', 'RElbowYaw', 'RElbowRoll', 'RWristYaw', 'RHand']
position: [1.0553500652313232, -0.013848066329956055, 0.4049339294433594, 0.6963939666748047, 0.007627964019775391, -0.9525721073150635, -0.2086658477783203, 0.3744000196456909, 0.0353238582611084, -0.1257460117340088, -1.0584180355072021, 2.112546443939209, -1.0769100189208984, 0.1043538972735405, 0.0353238582611084, 0.06907200813293457, -1.0063457489013672, 2.112546443939209, -1.1366519927978516, -0.07512402534484863, 0.40348386764526367, -0.8928298950195312, 0.7378120422363281, 0.7946538925170898, -0.8498780727386475, 0.4907999634742737]
velocity: []
effort: []
---
header: 
  seq: 269427
  stamp: 
    secs: 1384863311
    nsecs: 57904477
  frame_id: /torso
name: ['HeadYaw', 'HeadPitch', 'LShoulderPitch', 'LShoulderRoll', 'LElbowYaw', 'LElbowRoll', 'LWristYaw', 'LHand', 'LHipYawPitch', 'LHipRoll', 'LHipPitch', 'LKneePitch', 'LAnklePitch', 'LAnkleRoll', 'RHipYawPitch', 'RHipRoll', 'RHipPitch', 'RKneePitch', 'RAnklePitch', 'RAnkleRoll', 'RShoulderPitch', 'RShoulderRoll', 'RElbowYaw', 'RElbowRoll', 'RWristYaw', 'RHand']
position: [1.0553500652313232, -0.013848066329956055, 0.4049339294433594, 0.6963939666748047, 0.007627964019775391, -0.9525721073150635, -0.2086658477783203, 0.3744000196456909, 0.03685808181762695, -0.1257460117340088, -1.0568840503692627, 2.112546443939209, -1.0769100189208984, 0.1043538972735405, 0.03685808181762695, 0.06907200813293457, -1.0063457489013672, 2.112546443939209, -1.1366519927978516, -0.07512402534484863, 0.40348386764526367, -0.8928298950195312, 0.7378120422363281, 0.7946538925170898, -0.8498780727386475, 0.4907999634742737]
velocity: []
effort: []
---
header: 
  seq: 269428
  stamp: 
    secs: 1384863311
    nsecs: 98913830
  frame_id: /torso
name: ['HeadYaw', 'HeadPitch', 'LShoulderPitch', 'LShoulderRoll', 'LElbowYaw', 'LElbowRoll', 'LWristYaw', 'LHand', 'LHipYawPitch', 'LHipRoll', 'LHipPitch', 'LKneePitch', 'LAnklePitch', 'LAnkleRoll', 'RHipYawPitch', 'RHipRoll', 'RHipPitch', 'RKneePitch', 'RAnklePitch', 'RAnkleRoll', 'RShoulderPitch', 'RShoulderRoll', 'RElbowYaw', 'RElbowRoll', 'RWristYaw', 'RHand']
position: [1.0553500652313232, -0.013848066329956055, 0.4049339294433594, 0.6963939666748047, 0.007627964019775391, -0.9525721073150635, -0.2086658477783203, 0.3744000196456909, 0.03685808181762695, -0.1257460117340088, -1.0584180355072021, 2.112546443939209, -1.0769100189208984, 0.1043538972735405, 0.03685808181762695, 0.06907200813293457, -1.0063457489013672, 2.112546443939209, -1.1366519927978516, -0.07512402534484863, 0.40348386764526367, -0.8928298950195312, 0.7378120422363281, 0.7946538925170898, -0.8498780727386475, 0.4907999634742737]
velocity: []
effort: []
---
header: 
  seq: 269429
  stamp: 
    secs: 1384863311
    nsecs: 138555153
  frame_id: /torso
name: ['HeadYaw', 'HeadPitch', 'LShoulderPitch', 'LShoulderRoll', 'LElbowYaw', 'LElbowRoll', 'LWristYaw', 'LHand', 'LHipYawPitch', 'LHipRoll', 'LHipPitch', 'LKneePitch', 'LAnklePitch', 'LAnkleRoll', 'RHipYawPitch', 'RHipRoll', 'RHipPitch', 'RKneePitch', 'RAnklePitch', 'RAnkleRoll', 'RShoulderPitch', 'RShoulderRoll', 'RElbowYaw', 'RElbowRoll', 'RWristYaw', 'RHand']
position: [1.0553500652313232, -0.0123138427734375, 0.4049339294433594, 0.6963939666748047, 0.007627964019775391, -0.9525721073150635, -0.2086658477783203, 0.3744000196456909, 0.03685808181762695, -0.1257460117340088, -1.0568840503692627, 2.112546443939209, -1.078444004058838, 0.1043538972735405, 0.03685808181762695, 0.06907200813293457, -1.0063457489013672, 2.112546443939209, -1.1366519927978516, -0.07512402534484863, 0.40348386764526367, -0.8928298950195312, 0.7378120422363281, 0.7946538925170898, -0.8498780727386475, 0.4907999634742737]
velocity: []
effort: []
---
header: 
  seq: 269430
  stamp: 
    secs: 1384863311
    nsecs: 180343404
  frame_id: /torso
name: ['HeadYaw', 'HeadPitch', 'LShoulderPitch', 'LShoulderRoll', 'LElbowYaw', 'LElbowRoll', 'LWristYaw', 'LHand', 'LHipYawPitch', 'LHipRoll', 'LHipPitch', 'LKneePitch', 'LAnklePitch', 'LAnkleRoll', 'RHipYawPitch', 'RHipRoll', 'RHipPitch', 'RKneePitch', 'RAnklePitch', 'RAnkleRoll', 'RShoulderPitch', 'RShoulderRoll', 'RElbowYaw', 'RElbowRoll', 'RWristYaw', 'RHand']
position: [1.0553500652313232, -0.0123138427734375, 0.40646815299987793, 0.6963939666748047, 0.007627964019775391, -0.9525721073150635, -0.2086658477783203, 0.3744000196456909, 0.03685808181762695, -0.1257460117340088, -1.0568840503692627, 2.112546443939209, -1.0769100189208984, 0.1043538972735405, 0.03685808181762695, 0.06907200813293457, -1.0063457489013672, 2.112546443939209, -1.1366519927978516, -0.07512402534484863, 0.40348386764526367, -0.8928298950195312, 0.7378120422363281, 0.7946538925170898, -0.8498780727386475, 0.4907999634742737]
velocity: []
effort: []
---
header: 
  seq: 269431
  stamp: 
    secs: 1384863311
    nsecs: 218196902
  frame_id: /torso
name: ['HeadYaw', 'HeadPitch', 'LShoulderPitch', 'LShoulderRoll', 'LElbowYaw', 'LElbowRoll', 'LWristYaw', 'LHand', 'LHipYawPitch', 'LHipRoll', 'LHipPitch', 'LKneePitch', 'LAnklePitch', 'LAnkleRoll', 'RHipYawPitch', 'RHipRoll', 'RHipPitch', 'RKneePitch', 'RAnklePitch', 'RAnkleRoll', 'RShoulderPitch', 'RShoulderRoll', 'RElbowYaw', 'RElbowRoll', 'RWristYaw', 'RHand']
position: [1.0553500652313232, -0.013848066329956055, 0.4049339294433594, 0.6963939666748047, 0.007627964019775391, -0.9525721073150635, -0.2086658477783203, 0.3744000196456909, 0.03685808181762695, -0.1257460117340088, -1.0584180355072021, 2.112546443939209, -1.078444004058838, 0.1043538972735405, 0.03685808181762695, 0.06907200813293457, -1.0063457489013672, 2.112546443939209, -1.1366519927978516, -0.07512402534484863, 0.40348386764526367, -0.8928298950195312, 0.7378120422363281, 0.7946538925170898, -0.8498780727386475, 0.4907999634742737]
velocity: []
effort: []
---
header: 
  seq: 269432
  stamp: 
    secs: 1384863311
    nsecs: 258934667
  frame_id: /torso
name: ['HeadYaw', 'HeadPitch', 'LShoulderPitch', 'LShoulderRoll', 'LElbowYaw', 'LElbowRoll', 'LWristYaw', 'LHand', 'LHipYawPitch', 'LHipRoll', 'LHipPitch', 'LKneePitch', 'LAnklePitch', 'LAnkleRoll', 'RHipYawPitch', 'RHipRoll', 'RHipPitch', 'RKneePitch', 'RAnklePitch', 'RAnkleRoll', 'RShoulderPitch', 'RShoulderRoll', 'RElbowYaw', 'RElbowRoll', 'RWristYaw', 'RHand']
position: [1.0553500652313232, -0.013848066329956055, 0.4049339294433594, 0.6963939666748047, 0.007627964019775391, -0.9525721073150635, -0.2086658477783203, 0.3744000196456909, 0.03685808181762695, -0.1257460117340088, -1.0584180355072021, 2.112546443939209, -1.078444004058838, 0.1043538972735405, 0.03685808181762695, 0.06907200813293457, -1.0063457489013672, 2.112546443939209, -1.1366519927978516, -0.07512402534484863, 0.40348386764526367, -0.8943638801574707, 0.7378120422363281, 0.7946538925170898, -0.8498780727386475, 0.4907999634742737]
velocity: []
effort: []
---
header: 
  seq: 269433
  stamp: 
    secs: 1384863311
    nsecs: 297674098
  frame_id: /torso
name: ['HeadYaw', 'HeadPitch', 'LShoulderPitch', 'LShoulderRoll', 'LElbowYaw', 'LElbowRoll', 'LWristYaw', 'LHand', 'LHipYawPitch', 'LHipRoll', 'LHipPitch', 'LKneePitch', 'LAnklePitch', 'LAnkleRoll', 'RHipYawPitch', 'RHipRoll', 'RHipPitch', 'RKneePitch', 'RAnklePitch', 'RAnkleRoll', 'RShoulderPitch', 'RShoulderRoll', 'RElbowYaw', 'RElbowRoll', 'RWristYaw', 'RHand']
position: [1.0553500652313232, -0.013848066329956055, 0.4049339294433594, 0.6963939666748047, 0.007627964019775391, -0.9525721073150635, -0.21020007133483887, 0.3744000196456909, 0.0353238582611084, -0.1257460117340088, -1.0568840503692627, 2.112546443939209, -1.0769100189208984, 0.1043538972735405, 0.0353238582611084, 0.06907200813293457, -1.0063457489013672, 2.112546443939209, -1.1366519927978516, -0.07512402534484863, 0.40348386764526367, -0.8943638801574707, 0.7378120422363281, 0.7946538925170898, -0.8498780727386475, 0.4907999634742737]
velocity: []
effort: []
---
header: 
  seq: 269434
  stamp: 
    secs: 1384863311
    nsecs: 338546732
  frame_id: /torso
name: ['HeadYaw', 'HeadPitch', 'LShoulderPitch', 'LShoulderRoll', 'LElbowYaw', 'LElbowRoll', 'LWristYaw', 'LHand', 'LHipYawPitch', 'LHipRoll', 'LHipPitch', 'LKneePitch', 'LAnklePitch', 'LAnkleRoll', 'RHipYawPitch', 'RHipRoll', 'RHipPitch', 'RKneePitch', 'RAnklePitch', 'RAnkleRoll', 'RShoulderPitch', 'RShoulderRoll', 'RElbowYaw', 'RElbowRoll', 'RWristYaw', 'RHand']
position: [1.0553500652313232, -0.013848066329956055, 0.4049339294433594, 0.6963939666748047, 0.007627964019775391, -0.9525721073150635, -0.2086658477783203, 0.3744000196456909, 0.03685808181762695, -0.1257460117340088, -1.0584180355072021, 2.112546443939209, -1.078444004058838, 0.1043538972735405, 0.03685808181762695, 0.06907200813293457, -1.0063457489013672, 2.112546443939209, -1.1366519927978516, -0.07512402534484863, 0.40348386764526367, -0.8928298950195312, 0.7378120422363281, 0.7946538925170898, -0.8498780727386475, 0.4907999634742737]
velocity: []
effort: []
---
header: 
  seq: 269435
  stamp: 
    secs: 1384863311
    nsecs: 377967245
  frame_id: /torso
name: ['HeadYaw', 'HeadPitch', 'LShoulderPitch', 'LShoulderRoll', 'LElbowYaw', 'LElbowRoll', 'LWristYaw', 'LHand', 'LHipYawPitch', 'LHipRoll', 'LHipPitch', 'LKneePitch', 'LAnklePitch', 'LAnkleRoll', 'RHipYawPitch', 'RHipRoll', 'RHipPitch', 'RKneePitch', 'RAnklePitch', 'RAnkleRoll', 'RShoulderPitch', 'RShoulderRoll', 'RElbowYaw', 'RElbowRoll', 'RWristYaw', 'RHand']
position: [1.0538160800933838, -0.013848066329956055, 0.4049339294433594, 0.6963939666748047, 0.007627964019775391, -0.9525721073150635, -0.2086658477783203, 0.3744000196456909, 0.03685808181762695, -0.1257460117340088, -1.0584180355072021, 2.112546443939209, -1.0769100189208984, 0.1043538972735405, 0.03685808181762695, 0.06907200813293457, -1.0063457489013672, 2.112546443939209, -1.1366519927978516, -0.07512402534484863, 0.40348386764526367, -0.8928298950195312, 0.7378120422363281, 0.7946538925170898, -0.8498780727386475, 0.4907999634742737]
velocity: []
effort: []
---
header: 
  seq: 269436
  stamp: 
    secs: 1384863311
    nsecs: 419922596
  frame_id: /torso
name: ['HeadYaw', 'HeadPitch', 'LShoulderPitch', 'LShoulderRoll', 'LElbowYaw', 'LElbowRoll', 'LWristYaw', 'LHand', 'LHipYawPitch', 'LHipRoll', 'LHipPitch', 'LKneePitch', 'LAnklePitch', 'LAnkleRoll', 'RHipYawPitch', 'RHipRoll', 'RHipPitch', 'RKneePitch', 'RAnklePitch', 'RAnkleRoll', 'RShoulderPitch', 'RShoulderRoll', 'RElbowYaw', 'RElbowRoll', 'RWristYaw', 'RHand']
position: [1.0553500652313232, -0.013848066329956055, 0.4049339294433594, 0.6963939666748047, 0.007627964019775391, -0.9525721073150635, -0.2086658477783203, 0.3744000196456909, 0.03685808181762695, -0.1257460117340088, -1.0568840503692627, 2.112546443939209, -1.0769100189208984, 0.1043538972735405, 0.03685808181762695, 0.06907200813293457, -1.0063457489013672, 2.112546443939209, -1.1366519927978516, -0.07512402534484863, 0.40348386764526367, -0.8928298950195312, 0.7378120422363281, 0.7946538925170898, -0.8498780727386475, 0.4907999634742737]
velocity: []
effort: []
---
header: 
  seq: 269437
  stamp: 
    secs: 1384863311
    nsecs: 458474183
  frame_id: /torso
name: ['HeadYaw', 'HeadPitch', 'LShoulderPitch', 'LShoulderRoll', 'LElbowYaw', 'LElbowRoll', 'LWristYaw', 'LHand', 'LHipYawPitch', 'LHipRoll', 'LHipPitch', 'LKneePitch', 'LAnklePitch', 'LAnkleRoll', 'RHipYawPitch', 'RHipRoll', 'RHipPitch', 'RKneePitch', 'RAnklePitch', 'RAnkleRoll', 'RShoulderPitch', 'RShoulderRoll', 'RElbowYaw', 'RElbowRoll', 'RWristYaw', 'RHand']
position: [1.0553500652313232, -0.013848066329956055, 0.4049339294433594, 0.6963939666748047, 0.007627964019775391, -0.9525721073150635, -0.2086658477783203, 0.3744000196456909, 0.03685808181762695, -0.1257460117340088, -1.0584180355072021, 2.112546443939209, -1.0769100189208984, 0.1043538972735405, 0.03685808181762695, 0.06907200813293457, -1.0063457489013672, 2.112546443939209, -1.1366519927978516, -0.07512402534484863, 0.40348386764526367, -0.8928298950195312, 0.7378120422363281, 0.7946538925170898, -0.8498780727386475, 0.4907999634742737]
velocity: []
effort: []
---
header: 
  seq: 269438
  stamp: 
    secs: 1384863311
    nsecs: 497597649
  frame_id: /torso
name: ['HeadYaw', 'HeadPitch', 'LShoulderPitch', 'LShoulderRoll', 'LElbowYaw', 'LElbowRoll', 'LWristYaw', 'LHand', 'LHipYawPitch', 'LHipRoll', 'LHipPitch', 'LKneePitch', 'LAnklePitch', 'LAnkleRoll', 'RHipYawPitch', 'RHipRoll', 'RHipPitch', 'RKneePitch', 'RAnklePitch', 'RAnkleRoll', 'RShoulderPitch', 'RShoulderRoll', 'RElbowYaw', 'RElbowRoll', 'RWristYaw', 'RHand']
position: [1.0553500652313232, -0.0123138427734375, 0.4049339294433594, 0.6963939666748047, 0.007627964019775391, -0.9525721073150635, -0.2086658477783203, 0.3744000196456909, 0.03685808181762695, -0.1257460117340088, -1.0568840503692627, 2.112546443939209, -1.078444004058838, 0.1043538972735405, 0.03685808181762695, 0.06907200813293457, -1.0063457489013672, 2.112546443939209, -1.1366519927978516, -0.07512402534484863, 0.40348386764526367, -0.8928298950195312, 0.7378120422363281, 0.7946538925170898, -0.8498780727386475, 0.4907999634742737]
velocity: []
effort: []
---
header: 
  seq: 269439
  stamp: 
    secs: 1384863311
    nsecs: 539570462
  frame_id: /torso
name: ['HeadYaw', 'HeadPitch', 'LShoulderPitch', 'LShoulderRoll', 'LElbowYaw', 'LElbowRoll', 'LWristYaw', 'LHand', 'LHipYawPitch', 'LHipRoll', 'LHipPitch', 'LKneePitch', 'LAnklePitch', 'LAnkleRoll', 'RHipYawPitch', 'RHipRoll', 'RHipPitch', 'RKneePitch', 'RAnklePitch', 'RAnkleRoll', 'RShoulderPitch', 'RShoulderRoll', 'RElbowYaw', 'RElbowRoll', 'RWristYaw', 'RHand']
position: [1.0553500652313232, -0.013848066329956055, 0.4049339294433594, 0.6963939666748047, 0.007627964019775391, -0.9525721073150635, -0.2086658477783203, 0.3744000196456909, 0.03685808181762695, -0.1257460117340088, -1.0568840503692627, 2.112546443939209, -1.0769100189208984, 0.1043538972735405, 0.03685808181762695, 0.06907200813293457, -1.0063457489013672, 2.112546443939209, -1.1366519927978516, -0.07512402534484863, 0.40348386764526367, -0.8943638801574707, 0.7378120422363281, 0.7946538925170898, -0.8498780727386475, 0.4907999634742737]
velocity: []
effort: []
---
header: 
  seq: 269440
  stamp: 
    secs: 1384863311
    nsecs: 577480010
  frame_id: /torso
name: ['HeadYaw', 'HeadPitch', 'LShoulderPitch', 'LShoulderRoll', 'LElbowYaw', 'LElbowRoll', 'LWristYaw', 'LHand', 'LHipYawPitch', 'LHipRoll', 'LHipPitch', 'LKneePitch', 'LAnklePitch', 'LAnkleRoll', 'RHipYawPitch', 'RHipRoll', 'RHipPitch', 'RKneePitch', 'RAnklePitch', 'RAnkleRoll', 'RShoulderPitch', 'RShoulderRoll', 'RElbowYaw', 'RElbowRoll', 'RWristYaw', 'RHand']
position: [1.0553500652313232, -0.013848066329956055, 0.4049339294433594, 0.6963939666748047, 0.007627964019775391, -0.9525721073150635, -0.2086658477783203, 0.3744000196456909, 0.03685808181762695, -0.1257460117340088, -1.0584180355072021, 2.112546443939209, -1.0769100189208984, 0.1043538972735405, 0.03685808181762695, 0.06907200813293457, -1.0063457489013672, 2.112546443939209, -1.1366519927978516, -0.07512402534484863, 0.40348386764526367, -0.8928298950195312, 0.7378120422363281, 0.7946538925170898, -0.8498780727386475, 0.4907999634742737]
velocity: []
effort: []
---
header: 
  seq: 269441
  stamp: 
    secs: 1384863311
    nsecs: 618798177
  frame_id: /torso
name: ['HeadYaw', 'HeadPitch', 'LShoulderPitch', 'LShoulderRoll', 'LElbowYaw', 'LElbowRoll', 'LWristYaw', 'LHand', 'LHipYawPitch', 'LHipRoll', 'LHipPitch', 'LKneePitch', 'LAnklePitch', 'LAnkleRoll', 'RHipYawPitch', 'RHipRoll', 'RHipPitch', 'RKneePitch', 'RAnklePitch', 'RAnkleRoll', 'RShoulderPitch', 'RShoulderRoll', 'RElbowYaw', 'RElbowRoll', 'RWristYaw', 'RHand']
position: [1.0553500652313232, -0.0123138427734375, 0.4049339294433594, 0.6963939666748047, 0.007627964019775391, -0.9525721073150635, -0.2086658477783203, 0.3744000196456909, 0.03685808181762695, -0.1257460117340088, -1.0568840503692627, 2.112546443939209, -1.0769100189208984, 0.1043538972735405, 0.03685808181762695, 0.06907200813293457, -1.0063457489013672, 2.112546443939209, -1.1366519927978516, -0.07512402534484863, 0.40348386764526367, -0.8928298950195312, 0.7378120422363281, 0.7946538925170898, -0.8498780727386475, 0.4907999634742737]
velocity: []
effort: []
---
header: 
  seq: 269442
  stamp: 
    secs: 1384863311
    nsecs: 657392158
  frame_id: /torso
name: ['HeadYaw', 'HeadPitch', 'LShoulderPitch', 'LShoulderRoll', 'LElbowYaw', 'LElbowRoll', 'LWristYaw', 'LHand', 'LHipYawPitch', 'LHipRoll', 'LHipPitch', 'LKneePitch', 'LAnklePitch', 'LAnkleRoll', 'RHipYawPitch', 'RHipRoll', 'RHipPitch', 'RKneePitch', 'RAnklePitch', 'RAnkleRoll', 'RShoulderPitch', 'RShoulderRoll', 'RElbowYaw', 'RElbowRoll', 'RWristYaw', 'RHand']
position: [1.0553500652313232, -0.013848066329956055, 0.40646815299987793, 0.6963939666748047, 0.007627964019775391, -0.9525721073150635, -0.2086658477783203, 0.3744000196456909, 0.0353238582611084, -0.1257460117340088, -1.0568840503692627, 2.112546443939209, -1.0769100189208984, 0.1043538972735405, 0.0353238582611084, 0.06907200813293457, -1.0063457489013672, 2.112546443939209, -1.1366519927978516, -0.07512402534484863, 0.40348386764526367, -0.8943638801574707, 0.7378120422363281, 0.7946538925170898, -0.8498780727386475, 0.4907999634742737]
velocity: []
effort: []
---
header: 
  seq: 269443
  stamp: 
    secs: 1384863311
    nsecs: 698112289
  frame_id: /torso
name: ['HeadYaw', 'HeadPitch', 'LShoulderPitch', 'LShoulderRoll', 'LElbowYaw', 'LElbowRoll', 'LWristYaw', 'LHand', 'LHipYawPitch', 'LHipRoll', 'LHipPitch', 'LKneePitch', 'LAnklePitch', 'LAnkleRoll', 'RHipYawPitch', 'RHipRoll', 'RHipPitch', 'RKneePitch', 'RAnklePitch', 'RAnkleRoll', 'RShoulderPitch', 'RShoulderRoll', 'RElbowYaw', 'RElbowRoll', 'RWristYaw', 'RHand']
position: [1.0538160800933838, -0.0123138427734375, 0.4049339294433594, 0.6963939666748047, 0.007627964019775391, -0.9525721073150635, -0.2086658477783203, 0.3744000196456909, 0.03685808181762695, -0.1257460117340088, -1.0584180355072021, 2.112546443939209, -1.0769100189208984, 0.1043538972735405, 0.03685808181762695, 0.06907200813293457, -1.0063457489013672, 2.112546443939209, -1.1366519927978516, -0.07512402534484863, 0.40348386764526367, -0.8928298950195312, 0.7378120422363281, 0.7946538925170898, -0.8498780727386475, 0.4907999634742737]
velocity: []
effort: []
---
header: 
  seq: 269444
  stamp: 
    secs: 1384863311
    nsecs: 737130921
  frame_id: /torso
name: ['HeadYaw', 'HeadPitch', 'LShoulderPitch', 'LShoulderRoll', 'LElbowYaw', 'LElbowRoll', 'LWristYaw', 'LHand', 'LHipYawPitch', 'LHipRoll', 'LHipPitch', 'LKneePitch', 'LAnklePitch', 'LAnkleRoll', 'RHipYawPitch', 'RHipRoll', 'RHipPitch', 'RKneePitch', 'RAnklePitch', 'RAnkleRoll', 'RShoulderPitch', 'RShoulderRoll', 'RElbowYaw', 'RElbowRoll', 'RWristYaw', 'RHand']
position: [1.0553500652313232, -0.013848066329956055, 0.4049339294433594, 0.6963939666748047, 0.007627964019775391, -0.9525721073150635, -0.2086658477783203, 0.3744000196456909, 0.0353238582611084, -0.1257460117340088, -1.0584180355072021, 2.112546443939209, -1.0769100189208984, 0.1043538972735405, 0.0353238582611084, 0.06907200813293457, -1.0063457489013672, 2.112546443939209, -1.1366519927978516, -0.07512402534484863, 0.40348386764526367, -0.8928298950195312, 0.7378120422363281, 0.7946538925170898, -0.8498780727386475, 0.4907999634742737]
velocity: []
effort: []
---
header: 
  seq: 269445
  stamp: 
    secs: 1384863311
    nsecs: 776794105
  frame_id: /torso
name: ['HeadYaw', 'HeadPitch', 'LShoulderPitch', 'LShoulderRoll', 'LElbowYaw', 'LElbowRoll', 'LWristYaw', 'LHand', 'LHipYawPitch', 'LHipRoll', 'LHipPitch', 'LKneePitch', 'LAnklePitch', 'LAnkleRoll', 'RHipYawPitch', 'RHipRoll', 'RHipPitch', 'RKneePitch', 'RAnklePitch', 'RAnkleRoll', 'RShoulderPitch', 'RShoulderRoll', 'RElbowYaw', 'RElbowRoll', 'RWristYaw', 'RHand']
position: [1.0553500652313232, -0.013848066329956055, 0.4049339294433594, 0.6963939666748047, 0.007627964019775391, -0.9525721073150635, -0.2086658477783203, 0.3744000196456909, 0.03685808181762695, -0.1257460117340088, -1.0584180355072021, 2.112546443939209, -1.0769100189208984, 0.1043538972735405, 0.03685808181762695, 0.06907200813293457, -1.0063457489013672, 2.112546443939209, -1.1366519927978516, -0.07512402534484863, 0.40348386764526367, -0.8943638801574707, 0.7378120422363281, 0.7946538925170898, -0.8498780727386475, 0.4907999634742737]
velocity: []
effort: []
---
header: 
  seq: 269446
  stamp: 
    secs: 1384863311
    nsecs: 818275846
  frame_id: /torso
name: ['HeadYaw', 'HeadPitch', 'LShoulderPitch', 'LShoulderRoll', 'LElbowYaw', 'LElbowRoll', 'LWristYaw', 'LHand', 'LHipYawPitch', 'LHipRoll', 'LHipPitch', 'LKneePitch', 'LAnklePitch', 'LAnkleRoll', 'RHipYawPitch', 'RHipRoll', 'RHipPitch', 'RKneePitch', 'RAnklePitch', 'RAnkleRoll', 'RShoulderPitch', 'RShoulderRoll', 'RElbowYaw', 'RElbowRoll', 'RWristYaw', 'RHand']
position: [1.0553500652313232, -0.013848066329956055, 0.4049339294433594, 0.6963939666748047, 0.007627964019775391, -0.9525721073150635, -0.2086658477783203, 0.3744000196456909, 0.03685808181762695, -0.1257460117340088, -1.0568840503692627, 2.112546443939209, -1.0769100189208984, 0.1043538972735405, 0.03685808181762695, 0.06907200813293457, -1.0063457489013672, 2.112546443939209, -1.1366519927978516, -0.07512402534484863, 0.40348386764526367, -0.8928298950195312, 0.7378120422363281, 0.7946538925170898, -0.8498780727386475, 0.4907999634742737]
velocity: []
effort: []
---
header: 
  seq: 269447
  stamp: 
    secs: 1384863311
    nsecs: 857549826
  frame_id: /torso
name: ['HeadYaw', 'HeadPitch', 'LShoulderPitch', 'LShoulderRoll', 'LElbowYaw', 'LElbowRoll', 'LWristYaw', 'LHand', 'LHipYawPitch', 'LHipRoll', 'LHipPitch', 'LKneePitch', 'LAnklePitch', 'LAnkleRoll', 'RHipYawPitch', 'RHipRoll', 'RHipPitch', 'RKneePitch', 'RAnklePitch', 'RAnkleRoll', 'RShoulderPitch', 'RShoulderRoll', 'RElbowYaw', 'RElbowRoll', 'RWristYaw', 'RHand']
position: [1.0553500652313232, -0.0123138427734375, 0.4049339294433594, 0.6963939666748047, 0.007627964019775391, -0.9525721073150635, -0.2086658477783203, 0.3744000196456909, 0.03685808181762695, -0.1257460117340088, -1.0568840503692627, 2.112546443939209, -1.0769100189208984, 0.1043538972735405, 0.03685808181762695, 0.06907200813293457, -1.0063457489013672, 2.112546443939209, -1.1366519927978516, -0.07512402534484863, 0.40348386764526367, -0.8928298950195312, 0.7378120422363281, 0.7946538925170898, -0.8514120578765869, 0.4907999634742737]
velocity: []
effort: []
---
header: 
  seq: 269448
  stamp: 
    secs: 1384863311
    nsecs: 898458535
  frame_id: /torso
name: ['HeadYaw', 'HeadPitch', 'LShoulderPitch', 'LShoulderRoll', 'LElbowYaw', 'LElbowRoll', 'LWristYaw', 'LHand', 'LHipYawPitch', 'LHipRoll', 'LHipPitch', 'LKneePitch', 'LAnklePitch', 'LAnkleRoll', 'RHipYawPitch', 'RHipRoll', 'RHipPitch', 'RKneePitch', 'RAnklePitch', 'RAnkleRoll', 'RShoulderPitch', 'RShoulderRoll', 'RElbowYaw', 'RElbowRoll', 'RWristYaw', 'RHand']
