header: 
  seq: 84475
  stamp: 
    secs: 1385030258
    nsecs: 667383712
  frame_id: /torso
name: ['HeadYaw', 'HeadPitch', 'LShoulderPitch', 'LShoulderRoll', 'LElbowYaw', 'LElbowRoll', 'LWristYaw', 'LHand', 'LHipYawPitch', 'LHipRoll', 'LHipPitch', 'LKneePitch', 'LAnklePitch', 'LAnkleRoll', 'RHipYawPitch', 'RHipRoll', 'RHipPitch', 'RKneePitch', 'RAnklePitch', 'RAnkleRoll', 'RShoulderPitch', 'RShoulderRoll', 'RElbowYaw', 'RElbowRoll', 'RWristYaw', 'RHand']
position: [0.14415407180786133, -0.26695799827575684, 0.5721399784088135, -0.1733839511871338, -0.5630199909210205, -0.7178699970245361, 0.18557214736938477, 0.36959999799728394, 0.033789873123168945, -0.12727999687194824, -1.0538160800933838, 2.112546443939209, -1.0815119743347168, 0.10588788986206055, 0.033789873123168945, 0.06907200813293457, -1.0002098083496094, 2.112546443939209, -1.142788052558899, -0.07665801048278809, 0.2945699691772461, -0.7409639358520508, 0.63043212890625, 0.6213119029998779, -1.0278220176696777, 0.3456000089645386]
velocity: []
effort: []
---
header: 
  seq: 84476
  stamp: 
    secs: 1385030258
    nsecs: 707162967
  frame_id: /torso
name: ['HeadYaw', 'HeadPitch', 'LShoulderPitch', 'LShoulderRoll', 'LElbowYaw', 'LElbowRoll', 'LWristYaw', 'LHand', 'LHipYawPitch', 'LHipRoll', 'LHipPitch', 'LKneePitch', 'LAnklePitch', 'LAnkleRoll', 'RHipYawPitch', 'RHipRoll', 'RHipPitch', 'RKneePitch', 'RAnklePitch', 'RAnkleRoll', 'RShoulderPitch', 'RShoulderRoll', 'RElbowYaw', 'RElbowRoll', 'RWristYaw', 'RHand']
position: [0.14415407180786133, -0.26695799827575684, 0.570605993270874, -0.1733839511871338, -0.5630199909210205, -0.7163360118865967, 0.18557214736938477, 0.36959999799728394, 0.033789873123168945, -0.1288139820098877, -1.0538160800933838, 2.112546443939209, -1.0815119743347168, 0.10588788986206055, 0.033789873123168945, 0.06907200813293457, -0.9986758232116699, 2.112546443939209, -1.14125394821167, -0.07665801048278809, 0.2945699691772461, -0.7424979209899902, 0.63043212890625, 0.6213119029998779, -1.0278220176696777, 0.3452000021934509]
velocity: []
effort: []
---
header: 
  seq: 84477
  stamp: 
    secs: 1385030258
    nsecs: 755327593
  frame_id: /torso
name: ['HeadYaw', 'HeadPitch', 'LShoulderPitch', 'LShoulderRoll', 'LElbowYaw', 'LElbowRoll', 'LWristYaw', 'LHand', 'LHipYawPitch', 'LHipRoll', 'LHipPitch', 'LKneePitch', 'LAnklePitch', 'LAnkleRoll', 'RHipYawPitch', 'RHipRoll', 'RHipPitch', 'RKneePitch', 'RAnklePitch', 'RAnkleRoll', 'RShoulderPitch', 'RShoulderRoll', 'RElbowYaw', 'RElbowRoll', 'RWristYaw', 'RHand']
position: [0.14415407180786133, -0.2654240131378174, 0.570605993270874, -0.1733839511871338, -0.5630199909210205, -0.7163360118865967, 0.18557214736938477, 0.3700000047683716, 0.0353238582611084, -0.12727999687194824, -1.0538160800933838, 2.112546443939209, -1.0815119743347168, 0.1043538972735405, 0.0353238582611084, 0.06907200813293457, -0.9986758232116699, 2.112546443939209, -1.14125394821167, -0.07665801048278809, 0.2945699691772461, -0.7424979209899902, 0.63043212890625, 0.6213119029998779, -1.0278220176696777, 0.3452000021934509]
velocity: []
effort: []
---
header: 
  seq: 84478
  stamp: 
    secs: 1385030258
    nsecs: 787382724
  frame_id: /torso
name: ['HeadYaw', 'HeadPitch', 'LShoulderPitch', 'LShoulderRoll', 'LElbowYaw', 'LElbowRoll', 'LWristYaw', 'LHand', 'LHipYawPitch', 'LHipRoll', 'LHipPitch', 'LKneePitch', 'LAnklePitch', 'LAnkleRoll', 'RHipYawPitch', 'RHipRoll', 'RHipPitch', 'RKneePitch', 'RAnklePitch', 'RAnkleRoll', 'RShoulderPitch', 'RShoulderRoll', 'RElbowYaw', 'RElbowRoll', 'RWristYaw', 'RHand']
position: [0.14415407180786133, -0.2654240131378174, 0.570605993270874, -0.1733839511871338, -0.5630199909210205, -0.7163360118865967, 0.18557214736938477, 0.3700000047683716, 0.0353238582611084, -0.1288139820098877, -1.0538160800933838, 2.112546443939209, -1.0815119743347168, 0.10588788986206055, 0.0353238582611084, 0.06907200813293457, -1.0002098083496094, 2.112546443939209, -1.142788052558899, -0.07665801048278809, 0.2945699691772461, -0.7424979209899902, 0.6319661140441895, 0.6213119029998779, -1.0278220176696777, 0.3452000021934509]
velocity: []
effort: []
---
header: 
  seq: 84479
  stamp: 
    secs: 1385030258
    nsecs: 832925381
  frame_id: /torso
name: ['HeadYaw', 'HeadPitch', 'LShoulderPitch', 'LShoulderRoll', 'LElbowYaw', 'LElbowRoll', 'LWristYaw', 'LHand', 'LHipYawPitch', 'LHipRoll', 'LHipPitch', 'LKneePitch', 'LAnklePitch', 'LAnkleRoll', 'RHipYawPitch', 'RHipRoll', 'RHipPitch', 'RKneePitch', 'RAnklePitch', 'RAnkleRoll', 'RShoulderPitch', 'RShoulderRoll', 'RElbowYaw', 'RElbowRoll', 'RWristYaw', 'RHand']
position: [0.14415407180786133, -0.26695799827575684, 0.570605993270874, -0.1733839511871338, -0.5630199909210205, -0.7178699970245361, 0.18557214736938477, 0.36959999799728394, 0.033789873123168945, -0.12727999687194824, -1.0538160800933838, 2.112546443939209, -1.0815119743347168, 0.1043538972735405, 0.033789873123168945, 0.06907200813293457, -1.0002098083496094, 2.112546443939209, -1.14125394821167, -0.07665801048278809, 0.2945699691772461, -0.7424979209899902, 0.63043212890625, 0.6213119029998779, -1.0278220176696777, 0.3452000021934509]
velocity: []
effort: []
---
header: 
  seq: 84480
  stamp: 
    secs: 1385030258
    nsecs: 870846514
  frame_id: /torso
name: ['HeadYaw', 'HeadPitch', 'LShoulderPitch', 'LShoulderRoll', 'LElbowYaw', 'LElbowRoll', 'LWristYaw', 'LHand', 'LHipYawPitch', 'LHipRoll', 'LHipPitch', 'LKneePitch', 'LAnklePitch', 'LAnkleRoll', 'RHipYawPitch', 'RHipRoll', 'RHipPitch', 'RKneePitch', 'RAnklePitch', 'RAnkleRoll', 'RShoulderPitch', 'RShoulderRoll', 'RElbowYaw', 'RElbowRoll', 'RWristYaw', 'RHand']
position: [0.14568805694580078, -0.26695799827575684, 0.570605993270874, -0.1733839511871338, -0.5630199909210205, -0.7163360118865967, 0.18557214736938477, 0.3700000047683716, 0.033789873123168945, -0.1288139820098877, -1.0538160800933838, 2.112546443939209, -1.0815119743347168, 0.1043538972735405, 0.033789873123168945, 0.06907200813293457, -1.0002098083496094, 2.112546443939209, -1.14125394821167, -0.07665801048278809, 0.2945699691772461, -0.7424979209899902, 0.63043212890625, 0.6213119029998779, -1.0278220176696777, 0.3456000089645386]
velocity: []
effort: []
---
header: 
  seq: 84481
  stamp: 
    secs: 1385030258
    nsecs: 909860631
  frame_id: /torso
name: ['HeadYaw', 'HeadPitch', 'LShoulderPitch', 'LShoulderRoll', 'LElbowYaw', 'LElbowRoll', 'LWristYaw', 'LHand', 'LHipYawPitch', 'LHipRoll', 'LHipPitch', 'LKneePitch', 'LAnklePitch', 'LAnkleRoll', 'RHipYawPitch', 'RHipRoll', 'RHipPitch', 'RKneePitch', 'RAnklePitch', 'RAnkleRoll', 'RShoulderPitch', 'RShoulderRoll', 'RElbowYaw', 'RElbowRoll', 'RWristYaw', 'RHand']
position: [0.14415407180786133, -0.26695799827575684, 0.570605993270874, -0.1733839511871338, -0.5630199909210205, -0.7163360118865967, 0.18557214736938477, 0.36959999799728394, 0.0353238582611084, -0.1288139820098877, -1.0538160800933838, 2.112546443939209, -1.0815119743347168, 0.1043538972735405, 0.0353238582611084, 0.06907200813293457, -1.0002098083496094, 2.112546443939209, -1.14125394821167, -0.07665801048278809, 0.2945699691772461, -0.7424979209899902, 0.63043212890625, 0.6213119029998779, -1.0278220176696777, 0.3456000089645386]
velocity: []
effort: []
---
header: 
  seq: 84482
  stamp: 
    secs: 1385030258
    nsecs: 957170857
  frame_id: /torso
name: ['HeadYaw', 'HeadPitch', 'LShoulderPitch', 'LShoulderRoll', 'LElbowYaw', 'LElbowRoll', 'LWristYaw', 'LHand', 'LHipYawPitch', 'LHipRoll', 'LHipPitch', 'LKneePitch', 'LAnklePitch', 'LAnkleRoll', 'RHipYawPitch', 'RHipRoll', 'RHipPitch', 'RKneePitch', 'RAnklePitch', 'RAnkleRoll', 'RShoulderPitch', 'RShoulderRoll', 'RElbowYaw', 'RElbowRoll', 'RWristYaw', 'RHand']
position: [0.14415407180786133, -0.26695799827575684, 0.570605993270874, -0.1733839511871338, -0.5630199909210205, -0.7178699970245361, 0.18557214736938477, 0.36959999799728394, 0.0353238582611084, -0.12727999687194824, -1.0538160800933838, 2.112546443939209, -1.0830459594726562, 0.1043538972735405, 0.0353238582611084, 0.06907200813293457, -1.0002098083496094, 2.112546443939209, -1.142788052558899, -0.07665801048278809, 0.2945699691772461, -0.7424979209899902, 0.63043212890625, 0.6213119029998779, -1.0278220176696777, 0.3456000089645386]
velocity: []
effort: []
---
header: 
  seq: 84483
  stamp: 
    secs: 1385030258
    nsecs: 986416665
  frame_id: /torso
name: ['HeadYaw', 'HeadPitch', 'LShoulderPitch', 'LShoulderRoll', 'LElbowYaw', 'LElbowRoll', 'LWristYaw', 'LHand', 'LHipYawPitch', 'LHipRoll', 'LHipPitch', 'LKneePitch', 'LAnklePitch', 'LAnkleRoll', 'RHipYawPitch', 'RHipRoll', 'RHipPitch', 'RKneePitch', 'RAnklePitch', 'RAnkleRoll', 'RShoulderPitch', 'RShoulderRoll', 'RElbowYaw', 'RElbowRoll', 'RWristYaw', 'RHand']
position: [0.14415407180786133, -0.26695799827575684, 0.570605993270874, -0.1733839511871338, -0.5630199909210205, -0.7178699970245361, 0.18557214736938477, 0.3700000047683716, 0.0353238582611084, -0.1288139820098877, -1.0538160800933838, 2.112546443939209, -1.0815119743347168, 0.10588788986206055, 0.0353238582611084, 0.06907200813293457, -0.9986758232116699, 2.112546443939209, -1.14125394821167, -0.07665801048278809, 0.2945699691772461, -0.7424979209899902, 0.63043212890625, 0.6213119029998779, -1.0278220176696777, 0.3452000021934509]
velocity: []
effort: []
---
header: 
  seq: 84484
  stamp: 
    secs: 1385030259
    nsecs: 30292047
  frame_id: /torso
name: ['HeadYaw', 'HeadPitch', 'LShoulderPitch', 'LShoulderRoll', 'LElbowYaw', 'LElbowRoll', 'LWristYaw', 'LHand', 'LHipYawPitch', 'LHipRoll', 'LHipPitch', 'LKneePitch', 'LAnklePitch', 'LAnkleRoll', 'RHipYawPitch', 'RHipRoll', 'RHipPitch', 'RKneePitch', 'RAnklePitch', 'RAnkleRoll', 'RShoulderPitch', 'RShoulderRoll', 'RElbowYaw', 'RElbowRoll', 'RWristYaw', 'RHand']
position: [0.14415407180786133, -0.26695799827575684, 0.570605993270874, -0.1733839511871338, -0.5630199909210205, -0.7163360118865967, 0.18557214736938477, 0.36959999799728394, 0.0353238582611084, -0.1288139820098877, -1.0538160800933838, 2.112546443939209, -1.0815119743347168, 0.1043538972735405, 0.0353238582611084, 0.06907200813293457, -0.9986758232116699, 2.112546443939209, -1.14125394821167, -0.07665801048278809, 0.2945699691772461, -0.7424979209899902, 0.63043212890625, 0.6213119029998779, -1.0293560028076172, 0.3452000021934509]
velocity: []
effort: []
---
header: 
  seq: 84485
  stamp: 
    secs: 1385030259
    nsecs: 77429585
  frame_id: /torso
name: ['HeadYaw', 'HeadPitch', 'LShoulderPitch', 'LShoulderRoll', 'LElbowYaw', 'LElbowRoll', 'LWristYaw', 'LHand', 'LHipYawPitch', 'LHipRoll', 'LHipPitch', 'LKneePitch', 'LAnklePitch', 'LAnkleRoll', 'RHipYawPitch', 'RHipRoll', 'RHipPitch', 'RKneePitch', 'RAnklePitch', 'RAnkleRoll', 'RShoulderPitch', 'RShoulderRoll', 'RElbowYaw', 'RElbowRoll', 'RWristYaw', 'RHand']
position: [0.14415407180786133, -0.26695799827575684, 0.570605993270874, -0.1733839511871338, -0.5630199909210205, -0.7163360118865967, 0.18557214736938477, 0.3700000047683716, 0.033789873123168945, -0.12727999687194824, -1.0538160800933838, 2.112546443939209, -1.0815119743347168, 0.1043538972735405, 0.033789873123168945, 0.06907200813293457, -1.0002098083496094, 2.112546443939209, -1.14125394821167, -0.07665801048278809, 0.2945699691772461, -0.7424979209899902, 0.63043212890625, 0.6213119029998779, -1.0278220176696777, 0.3456000089645386]
velocity: []
effort: []
---
header: 
  seq: 84486
  stamp: 
    secs: 1385030259
    nsecs: 108216879
  frame_id: /torso
name: ['HeadYaw', 'HeadPitch', 'LShoulderPitch', 'LShoulderRoll', 'LElbowYaw', 'LElbowRoll', 'LWristYaw', 'LHand', 'LHipYawPitch', 'LHipRoll', 'LHipPitch', 'LKneePitch', 'LAnklePitch', 'LAnkleRoll', 'RHipYawPitch', 'RHipRoll', 'RHipPitch', 'RKneePitch', 'RAnklePitch', 'RAnkleRoll', 'RShoulderPitch', 'RShoulderRoll', 'RElbowYaw', 'RElbowRoll', 'RWristYaw', 'RHand']
position: [0.14415407180786133, -0.2654240131378174, 0.570605993270874, -0.1733839511871338, -0.5630199909210205, -0.7178699970245361, 0.18557214736938477, 0.3700000047683716, 0.0353238582611084, -0.1288139820098877, -1.0538160800933838, 2.112546443939209, -1.0815119743347168, 0.1043538972735405, 0.0353238582611084, 0.06907200813293457, -1.0002098083496094, 2.112546443939209, -1.14125394821167, -0.07665801048278809, 0.2945699691772461, -0.7424979209899902, 0.63043212890625, 0.6213119029998779, -1.0278220176696777, 0.3456000089645386]
velocity: []
effort: []
---
header: 
  seq: 84487
  stamp: 
    secs: 1385030259
    nsecs: 157588019
  frame_id: /torso
name: ['HeadYaw', 'HeadPitch', 'LShoulderPitch', 'LShoulderRoll', 'LElbowYaw', 'LElbowRoll', 'LWristYaw', 'LHand', 'LHipYawPitch', 'LHipRoll', 'LHipPitch', 'LKneePitch', 'LAnklePitch', 'LAnkleRoll', 'RHipYawPitch', 'RHipRoll', 'RHipPitch', 'RKneePitch', 'RAnklePitch', 'RAnkleRoll', 'RShoulderPitch', 'RShoulderRoll', 'RElbowYaw', 'RElbowRoll', 'RWristYaw', 'RHand']
position: [0.14415407180786133, -0.26695799827575684, 0.570605993270874, -0.1733839511871338, -0.5630199909210205, -0.7178699970245361, 0.18557214736938477, 0.3700000047683716, 0.033789873123168945, -0.1288139820098877, -1.0538160800933838, 2.112546443939209, -1.0815119743347168, 0.1043538972735405, 0.033789873123168945, 0.06907200813293457, -1.0002098083496094, 2.112546443939209, -1.14125394821167, -0.07665801048278809, 0.2945699691772461, -0.7424979209899902, 0.63043212890625, 0.6213119029998779, -1.0278220176696777, 0.3452000021934509]
velocity: []
effort: []
---
header: 
  seq: 84488
  stamp: 
    secs: 1385030259
    nsecs: 189817517
  frame_id: /torso
name: ['HeadYaw', 'HeadPitch', 'LShoulderPitch', 'LShoulderRoll', 'LElbowYaw', 'LElbowRoll', 'LWristYaw', 'LHand', 'LHipYawPitch', 'LHipRoll', 'LHipPitch', 'LKneePitch', 'LAnklePitch', 'LAnkleRoll', 'RHipYawPitch', 'RHipRoll', 'RHipPitch', 'RKneePitch', 'RAnklePitch', 'RAnkleRoll', 'RShoulderPitch', 'RShoulderRoll', 'RElbowYaw', 'RElbowRoll', 'RWristYaw', 'RHand']
position: [0.14415407180786133, -0.26695799827575684, 0.570605993270874, -0.1733839511871338, -0.5630199909210205, -0.7178699970245361, 0.18557214736938477, 0.36959999799728394, 0.033789873123168945, -0.1288139820098877, -1.0538160800933838, 2.112546443939209, -1.0815119743347168, 0.1043538972735405, 0.033789873123168945, 0.06907200813293457, -1.0002098083496094, 2.112546443939209, -1.14125394821167, -0.07665801048278809, 0.2945699691772461, -0.7424979209899902, 0.63043212890625, 0.6213119029998779, -1.0278220176696777, 0.3452000021934509]
velocity: []
effort: []
---
header: 
  seq: 84489
  stamp: 
    secs: 1385030259
    nsecs: 230734807
  frame_id: /torso
name: ['HeadYaw', 'HeadPitch', 'LShoulderPitch', 'LShoulderRoll', 'LElbowYaw', 'LElbowRoll', 'LWristYaw', 'LHand', 'LHipYawPitch', 'LHipRoll', 'LHipPitch', 'LKneePitch', 'LAnklePitch', 'LAnkleRoll', 'RHipYawPitch', 'RHipRoll', 'RHipPitch', 'RKneePitch', 'RAnklePitch', 'RAnkleRoll', 'RShoulderPitch', 'RShoulderRoll', 'RElbowYaw', 'RElbowRoll', 'RWristYaw', 'RHand']
position: [0.14415407180786133, -0.26695799827575684, 0.570605993270874, -0.1733839511871338, -0.5630199909210205, -0.7178699970245361, 0.18557214736938477, 0.36959999799728394, 0.033789873123168945, -0.12727999687194824, -1.0538160800933838, 2.112546443939209, -1.0830459594726562, 0.1043538972735405, 0.033789873123168945, 0.06907200813293457, -1.0002098083496094, 2.112546443939209, -1.142788052558899, -0.07665801048278809, 0.2945699691772461, -0.7424979209899902, 0.63043212890625, 0.6213119029998779, -1.0278220176696777, 0.3456000089645386]
velocity: []
effort: []
---
header: 
  seq: 84490
  stamp: 
    secs: 1385030259
    nsecs: 276320382
  frame_id: /torso
name: ['HeadYaw', 'HeadPitch', 'LShoulderPitch', 'LShoulderRoll', 'LElbowYaw', 'LElbowRoll', 'LWristYaw', 'LHand', 'LHipYawPitch', 'LHipRoll', 'LHipPitch', 'LKneePitch', 'LAnklePitch', 'LAnkleRoll', 'RHipYawPitch', 'RHipRoll', 'RHipPitch', 'RKneePitch', 'RAnklePitch', 'RAnkleRoll', 'RShoulderPitch', 'RShoulderRoll', 'RElbowYaw', 'RElbowRoll', 'RWristYaw', 'RHand']
position: [0.14415407180786133, -0.2654240131378174, 0.570605993270874, -0.1733839511871338, -0.5630199909210205, -0.7178699970245361, 0.18557214736938477, 0.3700000047683716, 0.0353238582611084, -0.1288139820098877, -1.0538160800933838, 2.112546443939209, -1.0815119743347168, 0.10588788986206055, 0.0353238582611084, 0.06907200813293457, -1.0002098083496094, 2.112546443939209, -1.142788052558899, -0.07665801048278809, 0.2945699691772461, -0.7424979209899902, 0.63043212890625, 0.6213119029998779, -1.0278220176696777, 0.3456000089645386]
velocity: []
effort: []
---
header: 
  seq: 84491
  stamp: 
    secs: 1385030259
    nsecs: 308587839
  frame_id: /torso
name: ['HeadYaw', 'HeadPitch', 'LShoulderPitch', 'LShoulderRoll', 'LElbowYaw', 'LElbowRoll', 'LWristYaw', 'LHand', 'LHipYawPitch', 'LHipRoll', 'LHipPitch', 'LKneePitch', 'LAnklePitch', 'LAnkleRoll', 'RHipYawPitch', 'RHipRoll', 'RHipPitch', 'RKneePitch', 'RAnklePitch', 'RAnkleRoll', 'RShoulderPitch', 'RShoulderRoll', 'RElbowYaw', 'RElbowRoll', 'RWristYaw', 'RHand']
position: [0.14415407180786133, -0.26695799827575684, 0.570605993270874, -0.1733839511871338, -0.5630199909210205, -0.7163360118865967, 0.18557214736938477, 0.36959999799728394, 0.033789873123168945, -0.1288139820098877, -1.0538160800933838, 2.112546443939209, -1.0815119743347168, 0.1043538972735405, 0.033789873123168945, 0.06907200813293457, -1.0002098083496094, 2.112546443939209, -1.14125394821167, -0.07665801048278809, 0.2945699691772461, -0.7424979209899902, 0.63043212890625, 0.6213119029998779, -1.0293560028076172, 0.3452000021934509]
velocity: []
effort: []
---
header: 
  seq: 84492
  stamp: 
    secs: 1385030259
    nsecs: 353989446
  frame_id: /torso
name: ['HeadYaw', 'HeadPitch', 'LShoulderPitch', 'LShoulderRoll', 'LElbowYaw', 'LElbowRoll', 'LWristYaw', 'LHand', 'LHipYawPitch', 'LHipRoll', 'LHipPitch', 'LKneePitch', 'LAnklePitch', 'LAnkleRoll', 'RHipYawPitch', 'RHipRoll', 'RHipPitch', 'RKneePitch', 'RAnklePitch', 'RAnkleRoll', 'RShoulderPitch', 'RShoulderRoll', 'RElbowYaw', 'RElbowRoll', 'RWristYaw', 'RHand']
position: [0.14415407180786133, -0.2654240131378174, 0.570605993270874, -0.1733839511871338, -0.5630199909210205, -0.7163360118865967, 0.18557214736938477, 0.3700000047683716, 0.033789873123168945, -0.12727999687194824, -1.0538160800933838, 2.112546443939209, -1.0815119743347168, 0.1043538972735405, 0.033789873123168945, 0.06907200813293457, -1.0002098083496094, 2.112546443939209, -1.142788052558899, -0.07665801048278809, 0.2945699691772461, -0.7424979209899902, 0.63043212890625, 0.6213119029998779, -1.0278220176696777, 0.3452000021934509]
velocity: []
effort: []
---
header: 
  seq: 84493
  stamp: 
    secs: 1385030259
    nsecs: 391618144
  frame_id: /torso
name: ['HeadYaw', 'HeadPitch', 'LShoulderPitch', 'LShoulderRoll', 'LElbowYaw', 'LElbowRoll', 'LWristYaw', 'LHand', 'LHipYawPitch', 'LHipRoll', 'LHipPitch', 'LKneePitch', 'LAnklePitch', 'LAnkleRoll', 'RHipYawPitch', 'RHipRoll', 'RHipPitch', 'RKneePitch', 'RAnklePitch', 'RAnkleRoll', 'RShoulderPitch', 'RShoulderRoll', 'RElbowYaw', 'RElbowRoll', 'RWristYaw', 'RHand']
position: [0.14415407180786133, -0.26695799827575684, 0.570605993270874, -0.1733839511871338, -0.5630199909210205, -0.7163360118865967, 0.18557214736938477, 0.36959999799728394, 0.033789873123168945, -0.12727999687194824, -1.0538160800933838, 2.112546443939209, -1.0815119743347168, 0.1043538972735405, 0.033789873123168945, 0.06907200813293457, -1.0002098083496094, 2.112546443939209, -1.14125394821167, -0.07665801048278809, 0.2945699691772461, -0.7424979209899902, 0.6319661140441895, 0.6213119029998779, -1.0278220176696777, 0.3452000021934509]
velocity: []
effort: []
---
header: 
  seq: 84494
  stamp: 
    secs: 1385030259
    nsecs: 426639644
  frame_id: /torso
name: ['HeadYaw', 'HeadPitch', 'LShoulderPitch', 'LShoulderRoll', 'LElbowYaw', 'LElbowRoll', 'LWristYaw', 'LHand', 'LHipYawPitch', 'LHipRoll', 'LHipPitch', 'LKneePitch', 'LAnklePitch', 'LAnkleRoll', 'RHipYawPitch', 'RHipRoll', 'RHipPitch', 'RKneePitch', 'RAnklePitch', 'RAnkleRoll', 'RShoulderPitch', 'RShoulderRoll', 'RElbowYaw', 'RElbowRoll', 'RWristYaw', 'RHand']
position: [0.14415407180786133, -0.26695799827575684, 0.570605993270874, -0.1733839511871338, -0.5630199909210205, -0.7178699970245361, 0.18557214736938477, 0.3700000047683716, 0.033789873123168945, -0.1288139820098877, -1.0538160800933838, 2.112546443939209, -1.0815119743347168, 0.1043538972735405, 0.033789873123168945, 0.06907200813293457, -1.0002098083496094, 2.112546443939209, -1.14125394821167, -0.07665801048278809, 0.2945699691772461, -0.7424979209899902, 0.63043212890625, 0.6213119029998779, -1.0278220176696777, 0.3456000089645386]
velocity: []
effort: []
---
header: 
  seq: 84495
  stamp: 
    secs: 1385030259
    nsecs: 475819378
  frame_id: /torso
name: ['HeadYaw', 'HeadPitch', 'LShoulderPitch', 'LShoulderRoll', 'LElbowYaw', 'LElbowRoll', 'LWristYaw', 'LHand', 'LHipYawPitch', 'LHipRoll', 'LHipPitch', 'LKneePitch', 'LAnklePitch', 'LAnkleRoll', 'RHipYawPitch', 'RHipRoll', 'RHipPitch', 'RKneePitch', 'RAnklePitch', 'RAnkleRoll', 'RShoulderPitch', 'RShoulderRoll', 'RElbowYaw', 'RElbowRoll', 'RWristYaw', 'RHand']
position: [0.14415407180786133, -0.26695799827575684, 0.570605993270874, -0.1733839511871338, -0.5630199909210205, -0.7178699970245361, 0.18557214736938477, 0.36959999799728394, 0.0353238582611084, -0.1288139820098877, -1.0538160800933838, 2.112546443939209, -1.0815119743347168, 0.1043538972735405, 0.0353238582611084, 0.06907200813293457, -1.0002098083496094, 2.112546443939209, -1.142788052558899, -0.07665801048278809, 0.2945699691772461, -0.7424979209899902, 0.63043212890625, 0.6213119029998779, -1.0278220176696777, 0.3452000021934509]
velocity: []
effort: []
---
header: 
  seq: 84496
  stamp: 
    secs: 1385030259
    nsecs: 508687631
  frame_id: /torso
name: ['HeadYaw', 'HeadPitch', 'LShoulderPitch', 'LShoulderRoll', 'LElbowYaw', 'LElbowRoll', 'LWristYaw', 'LHand', 'LHipYawPitch', 'LHipRoll', 'LHipPitch', 'LKneePitch', 'LAnklePitch', 'LAnkleRoll', 'RHipYawPitch', 'RHipRoll', 'RHipPitch', 'RKneePitch', 'RAnklePitch', 'RAnkleRoll', 'RShoulderPitch', 'RShoulderRoll', 'RElbowYaw', 'RElbowRoll', 'RWristYaw', 'RHand']
position: [0.14415407180786133, -0.26695799827575684, 0.570605993270874, -0.1733839511871338, -0.5630199909210205, -0.7163360118865967, 0.18557214736938477, 0.3700000047683716, 0.033789873123168945, -0.1288139820098877, -1.0538160800933838, 2.112546443939209, -1.0815119743347168, 0.10588788986206055, 0.033789873123168945, 0.06907200813293457, -1.0002098083496094, 2.112546443939209, -1.142788052558899, -0.07665801048278809, 0.2945699691772461, -0.7424979209899902, 0.63043212890625, 0.6213119029998779, -1.0278220176696777, 0.3456000089645386]
velocity: []
effort: []
---
header: 
  seq: 84497
  stamp: 
    secs: 1385030259
    nsecs: 553252230
  frame_id: /torso
name: ['HeadYaw', 'HeadPitch', 'LShoulderPitch', 'LShoulderRoll', 'LElbowYaw', 'LElbowRoll', 'LWristYaw', 'LHand', 'LHipYawPitch', 'LHipRoll', 'LHipPitch', 'LKneePitch', 'LAnklePitch', 'LAnkleRoll', 'RHipYawPitch', 'RHipRoll', 'RHipPitch', 'RKneePitch', 'RAnklePitch', 'RAnkleRoll', 'RShoulderPitch', 'RShoulderRoll', 'RElbowYaw', 'RElbowRoll', 'RWristYaw', 'RHand']
position: [0.14415407180786133, -0.26695799827575684, 0.570605993270874, -0.1733839511871338, -0.5630199909210205, -0.7178699970245361, 0.18557214736938477, 0.3700000047683716, 0.033789873123168945, -0.1288139820098877, -1.0538160800933838, 2.112546443939209, -1.0815119743347168, 0.1043538972735405, 0.033789873123168945, 0.06907200813293457, -1.0002098083496094, 2.112546443939209, -1.14125394821167, -0.07665801048278809, 0.2945699691772461, -0.7424979209899902, 0.63043212890625, 0.6213119029998779, -1.0278220176696777, 0.3452000021934509]
velocity: []
effort: []
---
header: 
  seq: 84498
  stamp: 
    secs: 1385030259
    nsecs: 595181102
  frame_id: /torso
name: ['HeadYaw', 'HeadPitch', 'LShoulderPitch', 'LShoulderRoll', 'LElbowYaw', 'LElbowRoll', 'LWristYaw', 'LHand', 'LHipYawPitch', 'LHipRoll', 'LHipPitch', 'LKneePitch', 'LAnklePitch', 'LAnkleRoll', 'RHipYawPitch', 'RHipRoll', 'RHipPitch', 'RKneePitch', 'RAnklePitch', 'RAnkleRoll', 'RShoulderPitch', 'RShoulderRoll', 'RElbowYaw', 'RElbowRoll', 'RWristYaw', 'RHand']
position: [0.14415407180786133, -0.2654240131378174, 0.570605993270874, -0.1733839511871338, -0.5630199909210205, -0.7178699970245361, 0.18557214736938477, 0.36959999799728394, 0.0353238582611084, -0.1288139820098877, -1.0538160800933838, 2.112546443939209, -1.0815119743347168, 0.1043538972735405, 0.0353238582611084, 0.06907200813293457, -1.0002098083496094, 2.112546443939209, -1.142788052558899, -0.07665801048278809, 0.2945699691772461, -0.7424979209899902, 0.63043212890625, 0.6213119029998779, -1.0278220176696777, 0.3452000021934509]
velocity: []
effort: []
---
header: 
  seq: 84499
  stamp: 
    secs: 1385030259
    nsecs: 628561624
  frame_id: /torso
name: ['HeadYaw', 'HeadPitch', 'LShoulderPitch', 'LShoulderRoll', 'LElbowYaw', 'LElbowRoll', 'LWristYaw', 'LHand', 'LHipYawPitch', 'LHipRoll', 'LHipPitch', 'LKneePitch', 'LAnklePitch', 'LAnkleRoll', 'RHipYawPitch', 'RHipRoll', 'RHipPitch', 'RKneePitch', 'RAnklePitch', 'RAnkleRoll', 'RShoulderPitch', 'RShoulderRoll', 'RElbowYaw', 'RElbowRoll', 'RWristYaw', 'RHand']
position: [0.14415407180786133, -0.2654240131378174, 0.570605993270874, -0.1733839511871338, -0.5630199909210205, -0.7163360118865967, 0.18557214736938477, 0.36959999799728394, 0.0353238582611084, -0.1288139820098877, -1.0538160800933838, 2.112546443939209, -1.0815119743347168, 0.1043538972735405, 0.0353238582611084, 0.06907200813293457, -1.0002098083496094, 2.112546443939209, -1.142788052558899, -0.07665801048278809, 0.2945699691772461, -0.7424979209899902, 0.63043212890625, 0.6213119029998779, -1.0278220176696777, 0.3456000089645386]
velocity: []
effort: []
---
header: 
  seq: 84500
  stamp: 
    secs: 1385030259
    nsecs: 675634312
  frame_id: /torso
name: ['HeadYaw', 'HeadPitch', 'LShoulderPitch', 'LShoulderRoll', 'LElbowYaw', 'LElbowRoll', 'LWristYaw', 'LHand', 'LHipYawPitch', 'LHipRoll', 'LHipPitch', 'LKneePitch', 'LAnklePitch', 'LAnkleRoll', 'RHipYawPitch', 'RHipRoll', 'RHipPitch', 'RKneePitch', 'RAnklePitch', 'RAnkleRoll', 'RShoulderPitch', 'RShoulderRoll', 'RElbowYaw', 'RElbowRoll', 'RWristYaw', 'RHand']
position: [0.14415407180786133, -0.26695799827575684, 0.570605993270874, -0.1733839511871338, -0.5630199909210205, -0.7163360118865967, 0.18557214736938477, 0.36959999799728394, 0.033789873123168945, -0.1288139820098877, -1.0538160800933838, 2.112546443939209, -1.0815119743347168, 0.1043538972735405, 0.033789873123168945, 0.06907200813293457, -1.0002098083496094, 2.112546443939209, -1.142788052558899, -0.07665801048278809, 0.2945699691772461, -0.7409639358520508, 0.63043212890625, 0.6213119029998779, -1.0278220176696777, 0.3456000089645386]
velocity: []
effort: []
---
header: 
  seq: 84501
  stamp: 
    secs: 1385030259
    nsecs: 710646488
  frame_id: /torso
name: ['HeadYaw', 'HeadPitch', 'LShoulderPitch', 'LShoulderRoll', 'LElbowYaw', 'LElbowRoll', 'LWristYaw', 'LHand', 'LHipYawPitch', 'LHipRoll', 'LHipPitch', 'LKneePitch', 'LAnklePitch', 'LAnkleRoll', 'RHipYawPitch', 'RHipRoll', 'RHipPitch', 'RKneePitch', 'RAnklePitch', 'RAnkleRoll', 'RShoulderPitch', 'RShoulderRoll', 'RElbowYaw', 'RElbowRoll', 'RWristYaw', 'RHand']
position: [0.14415407180786133, -0.26695799827575684, 0.570605993270874, -0.1733839511871338, -0.5630199909210205, -0.7178699970245361, 0.18557214736938477, 0.36959999799728394, 0.033789873123168945, -0.12727999687194824, -1.0538160800933838, 2.112546443939209, -1.0815119743347168, 0.1043538972735405, 0.033789873123168945, 0.06907200813293457, -1.0002098083496094, 2.112546443939209, -1.142788052558899, -0.07665801048278809, 0.2945699691772461, -0.7424979209899902, 0.63043212890625, 0.6213119029998779, -1.0278220176696777, 0.3456000089645386]
velocity: []
effort: []
---
header: 
  seq: 84502
  stamp: 
    secs: 1385030259
    nsecs: 749963240
  frame_id: /torso
name: ['HeadYaw', 'HeadPitch', 'LShoulderPitch', 'LShoulderRoll', 'LElbowYaw', 'LElbowRoll', 'LWristYaw', 'LHand', 'LHipYawPitch', 'LHipRoll', 'LHipPitch', 'LKneePitch', 'LAnklePitch', 'LAnkleRoll', 'RHipYawPitch', 'RHipRoll', 'RHipPitch', 'RKneePitch', 'RAnklePitch', 'RAnkleRoll', 'RShoulderPitch', 'RShoulderRoll', 'RElbowYaw', 'RElbowRoll', 'RWristYaw', 'RHand']
position: [0.14415407180786133, -0.26695799827575684, 0.570605993270874, -0.1733839511871338, -0.5630199909210205, -0.7163360118865967, 0.18557214736938477, 0.3700000047683716, 0.033789873123168945, -0.12727999687194824, -1.0538160800933838, 2.112546443939209, -1.0815119743347168, 0.1043538972735405, 0.033789873123168945, 0.06907200813293457, -1.0002098083496094, 2.112546443939209, -1.14125394821167, -0.07665801048278809, 0.2945699691772461, -0.7424979209899902, 0.63043212890625, 0.6213119029998779, -1.0278220176696777, 0.3452000021934509]
velocity: []
effort: []
---
header: 
  seq: 84503
  stamp: 
    secs: 1385030259
    nsecs: 798304254
  frame_id: /torso
name: ['HeadYaw', 'HeadPitch', 'LShoulderPitch', 'LShoulderRoll', 'LElbowYaw', 'LElbowRoll', 'LWristYaw', 'LHand', 'LHipYawPitch', 'LHipRoll', 'LHipPitch', 'LKneePitch', 'LAnklePitch', 'LAnkleRoll', 'RHipYawPitch', 'RHipRoll', 'RHipPitch', 'RKneePitch', 'RAnklePitch', 'RAnkleRoll', 'RShoulderPitch', 'RShoulderRoll', 'RElbowYaw', 'RElbowRoll', 'RWristYaw', 'RHand']
position: [0.14415407180786133, -0.26695799827575684, 0.570605993270874, -0.1733839511871338, -0.5630199909210205, -0.7178699970245361, 0.18557214736938477, 0.36959999799728394, 0.0353238582611084, -0.1288139820098877, -1.0538160800933838, 2.112546443939209, -1.0815119743347168, 0.1043538972735405, 0.0353238582611084, 0.06907200813293457, -1.0002098083496094, 2.112546443939209, -1.142788052558899, -0.07665801048278809, 0.2945699691772461, -0.7424979209899902, 0.6319661140441895, 0.6213119029998779, -1.0278220176696777, 0.3452000021934509]
velocity: []
effort: []
---
header: 
  seq: 84504
  stamp: 
    secs: 1385030259
    nsecs: 827660835
  frame_id: /torso
name: ['HeadYaw', 'HeadPitch', 'LShoulderPitch', 'LShoulderRoll', 'LElbowYaw', 'LElbowRoll', 'LWristYaw', 'LHand', 'LHipYawPitch', 'LHipRoll', 'LHipPitch', 'LKneePitch', 'LAnklePitch', 'LAnkleRoll', 'RHipYawPitch', 'RHipRoll', 'RHipPitch', 'RKneePitch', 'RAnklePitch', 'RAnkleRoll', 'RShoulderPitch', 'RShoulderRoll', 'RElbowYaw', 'RElbowRoll', 'RWristYaw', 'RHand']
position: [0.14415407180786133, -0.2654240131378174, 0.570605993270874, -0.1733839511871338, -0.5630199909210205, -0.7163360118865967, 0.18557214736938477, 0.3700000047683716, 0.033789873123168945, -0.1288139820098877, -1.0538160800933838, 2.112546443939209, -1.0830459594726562, 0.1043538972735405, 0.033789873123168945, 0.06907200813293457, -1.0002098083496094, 2.112546443939209, -1.14125394821167, -0.07665801048278809, 0.2945699691772461, -0.7424979209899902, 0.63043212890625, 0.6213119029998779, -1.0278220176696777, 0.3452000021934509]
velocity: []
effort: []
---
header: 
  seq: 84505
  stamp: 
    secs: 1385030259
    nsecs: 875604020
  frame_id: /torso
name: ['HeadYaw', 'HeadPitch', 'LShoulderPitch', 'LShoulderRoll', 'LElbowYaw', 'LElbowRoll', 'LWristYaw', 'LHand', 'LHipYawPitch', 'LHipRoll', 'LHipPitch', 'LKneePitch', 'LAnklePitch', 'LAnkleRoll', 'RHipYawPitch', 'RHipRoll', 'RHipPitch', 'RKneePitch', 'RAnklePitch', 'RAnkleRoll', 'RShoulderPitch', 'RShoulderRoll', 'RElbowYaw', 'RElbowRoll', 'RWristYaw', 'RHand']
position: [0.14415407180786133, -0.26695799827575684, 0.570605993270874, -0.1733839511871338, -0.5630199909210205, -0.7178699970245361, 0.18557214736938477, 0.3700000047683716, 0.0353238582611084, -0.12727999687194824, -1.0538160800933838, 2.112546443939209, -1.0815119743347168, 0.1043538972735405, 0.0353238582611084, 0.06907200813293457, -0.9986758232116699, 2.112546443939209, -1.142788052558899, -0.07665801048278809, 0.2945699691772461, -0.7424979209899902, 0.63043212890625, 0.6213119029998779, -1.0278220176696777, 0.3456000089645386]
velocity: []
effort: []
---
header: 
  seq: 84506
  stamp: 
    secs: 1385030259
    nsecs: 909522899
  frame_id: /torso
name: ['HeadYaw', 'HeadPitch', 'LShoulderPitch', 'LShoulderRoll', 'LElbowYaw', 'LElbowRoll', 'LWristYaw', 'LHand', 'LHipYawPitch', 'LHipRoll', 'LHipPitch', 'LKneePitch', 'LAnklePitch', 'LAnkleRoll', 'RHipYawPitch', 'RHipRoll', 'RHipPitch', 'RKneePitch', 'RAnklePitch', 'RAnkleRoll', 'RShoulderPitch', 'RShoulderRoll', 'RElbowYaw', 'RElbowRoll', 'RWristYaw', 'RHand']
position: [0.14415407180786133, -0.2654240131378174, 0.570605993270874, -0.1733839511871338, -0.5630199909210205, -0.7163360118865967, 0.18557214736938477, 0.3700000047683716, 0.0353238582611084, -0.12727999687194824, -1.0538160800933838, 2.112546443939209, -1.0815119743347168, 0.1043538972735405, 0.0353238582611084, 0.06907200813293457, -0.9986758232116699, 2.112546443939209, -1.14125394821167, -0.07665801048278809, 0.2945699691772461, -0.7424979209899902, 0.63043212890625, 0.6213119029998779, -1.0278220176696777, 0.3452000021934509]
velocity: []
effort: []
---
header: 
  seq: 84507
  stamp: 
    secs: 1385030259
    nsecs: 950319601
  frame_id: /torso
name: ['HeadYaw', 'HeadPitch', 'LShoulderPitch', 'LShoulderRoll', 'LElbowYaw', 'LElbowRoll', 'LWristYaw', 'LHand', 'LHipYawPitch', 'LHipRoll', 'LHipPitch', 'LKneePitch', 'LAnklePitch', 'LAnkleRoll', 'RHipYawPitch', 'RHipRoll', 'RHipPitch', 'RKneePitch', 'RAnklePitch', 'RAnkleRoll', 'RShoulderPitch', 'RShoulderRoll', 'RElbowYaw', 'RElbowRoll', 'RWristYaw', 'RHand']
position: [0.14415407180786133, -0.2654240131378174, 0.570605993270874, -0.1733839511871338, -0.5630199909210205, -0.7163360118865967, 0.18557214736938477, 0.3700000047683716, 0.0353238582611084, -0.1288139820098877, -1.0538160800933838, 2.112546443939209, -1.0815119743347168, 0.1043538972735405, 0.0353238582611084, 0.06907200813293457, -1.0002098083496094, 2.112546443939209, -1.142788052558899, -0.07665801048278809, 0.2945699691772461, -0.7424979209899902, 0.63043212890625, 0.6213119029998779, -1.0278220176696777, 0.3452000021934509]
velocity: []
effort: []
---
header: 
  seq: 84508
  stamp: 
    secs: 1385030259
    nsecs: 994059068
  frame_id: /torso
name: ['HeadYaw', 'HeadPitch', 'LShoulderPitch', 'LShoulderRoll', 'LElbowYaw', 'LElbowRoll', 'LWristYaw', 'LHand', 'LHipYawPitch', 'LHipRoll', 'LHipPitch', 'LKneePitch', 'LAnklePitch', 'LAnkleRoll', 'RHipYawPitch', 'RHipRoll', 'RHipPitch', 'RKneePitch', 'RAnklePitch', 'RAnkleRoll', 'RShoulderPitch', 'RShoulderRoll', 'RElbowYaw', 'RElbowRoll', 'RWristYaw', 'RHand']
position: [0.14415407180786133, -0.26695799827575684, 0.570605993270874, -0.1733839511871338, -0.5630199909210205, -0.7178699970245361, 0.18557214736938477, 0.3700000047683716, 0.0353238582611084, -0.1288139820098877, -1.0538160800933838, 2.112546443939209, -1.0815119743347168, 0.10588788986206055, 0.0353238582611084, 0.06907200813293457, -1.0002098083496094, 2.112546443939209, -1.14125394821167, -0.07665801048278809, 0.2945699691772461, -0.7424979209899902, 0.63043212890625, 0.6213119029998779, -1.0278220176696777, 0.3456000089645386]
velocity: []
effort: []
---
header: 
  seq: 84509
  stamp: 
    secs: 1385030260
    nsecs: 27785072
  frame_id: /torso
name: ['HeadYaw', 'HeadPitch', 'LShoulderPitch', 'LShoulderRoll', 'LElbowYaw', 'LElbowRoll', 'LWristYaw', 'LHand', 'LHipYawPitch', 'LHipRoll', 'LHipPitch', 'LKneePitch', 'LAnklePitch', 'LAnkleRoll', 'RHipYawPitch', 'RHipRoll', 'RHipPitch', 'RKneePitch', 'RAnklePitch', 'RAnkleRoll', 'RShoulderPitch', 'RShoulderRoll', 'RElbowYaw', 'RElbowRoll', 'RWristYaw', 'RHand']
position: [0.14415407180786133, -0.26695799827575684, 0.570605993270874, -0.1733839511871338, -0.5630199909210205, -0.7178699970245361, 0.18557214736938477, 0.3700000047683716, 0.0353238582611084, -0.1288139820098877, -1.0538160800933838, 2.112546443939209, -1.0815119743347168, 0.1043538972735405, 0.0353238582611084, 0.06907200813293457, -1.0002098083496094, 2.112546443939209, -1.14125394821167, -0.07665801048278809, 0.2945699691772461, -0.7424979209899902, 0.63043212890625, 0.6213119029998779, -1.0278220176696777, 0.3456000089645386]
velocity: []
effort: []
---
header: 
  seq: 84510
  stamp: 
    secs: 1385030260
    nsecs: 75517259
  frame_id: /torso
name: ['HeadYaw', 'HeadPitch', 'LShoulderPitch', 'LShoulderRoll', 'LElbowYaw', 'LElbowRoll', 'LWristYaw', 'LHand', 'LHipYawPitch', 'LHipRoll', 'LHipPitch', 'LKneePitch', 'LAnklePitch', 'LAnkleRoll', 'RHipYawPitch', 'RHipRoll', 'RHipPitch', 'RKneePitch', 'RAnklePitch', 'RAnkleRoll', 'RShoulderPitch', 'RShoulderRoll', 'RElbowYaw', 'RElbowRoll', 'RWristYaw', 'RHand']
position: [0.14415407180786133, -0.26695799827575684, 0.570605993270874, -0.1733839511871338, -0.5630199909210205, -0.7163360118865967, 0.18557214736938477, 0.36959999799728394, 0.033789873123168945, -0.1288139820098877, -1.0538160800933838, 2.112546443939209, -1.0815119743347168, 0.1043538972735405, 0.033789873123168945, 0.06907200813293457, -1.0002098083496094, 2.112546443939209, -1.14125394821167, -0.07665801048278809, 0.2945699691772461, -0.7424979209899902, 0.63043212890625, 0.6213119029998779, -1.0293560028076172, 0.3456000089645386]
velocity: []
effort: []
---
header: 
  seq: 84511
  stamp: 
    secs: 1385030260
    nsecs: 113812754
  frame_id: /torso
name: ['HeadYaw', 'HeadPitch', 'LShoulderPitch', 'LShoulderRoll', 'LElbowYaw', 'LElbowRoll', 'LWristYaw', 'LHand', 'LHipYawPitch', 'LHipRoll', 'LHipPitch', 'LKneePitch', 'LAnklePitch', 'LAnkleRoll', 'RHipYawPitch', 'RHipRoll', 'RHipPitch', 'RKneePitch', 'RAnklePitch', 'RAnkleRoll', 'RShoulderPitch', 'RShoulderRoll', 'RElbowYaw', 'RElbowRoll', 'RWristYaw', 'RHand']
position: [0.14415407180786133, -0.26695799827575684, 0.570605993270874, -0.1733839511871338, -0.5630199909210205, -0.7178699970245361, 0.18557214736938477, 0.3700000047683716, 0.0353238582611084, -0.1288139820098877, -1.0538160800933838, 2.112546443939209, -1.0815119743347168, 0.1043538972735405, 0.0353238582611084, 0.06907200813293457, -1.0002098083496094, 2.112546443939209, -1.14125394821167, -0.07665801048278809, 0.2945699691772461, -0.7424979209899902, 0.6319661140441895, 0.6213119029998779, -1.0278220176696777, 0.3452000021934509]
velocity: []
effort: []
---
header: 
  seq: 84512
  stamp: 
    secs: 1385030260
    nsecs: 148331032
  frame_id: /torso
name: ['HeadYaw', 'HeadPitch', 'LShoulderPitch', 'LShoulderRoll', 'LElbowYaw', 'LElbowRoll', 'LWristYaw', 'LHand', 'LHipYawPitch', 'LHipRoll', 'LHipPitch', 'LKneePitch', 'LAnklePitch', 'LAnkleRoll', 'RHipYawPitch', 'RHipRoll', 'RHipPitch', 'RKneePitch', 'RAnklePitch', 'RAnkleRoll', 'RShoulderPitch', 'RShoulderRoll', 'RElbowYaw', 'RElbowRoll', 'RWristYaw', 'RHand']
position: [0.14415407180786133, -0.2654240131378174, 0.570605993270874, -0.1733839511871338, -0.5630199909210205, -0.7178699970245361, 0.18557214736938477, 0.36959999799728394, 0.033789873123168945, -0.12727999687194824, -1.0538160800933838, 2.112546443939209, -1.0815119743347168, 0.1043538972735405, 0.033789873123168945, 0.06907200813293457, -1.0002098083496094, 2.112546443939209, -1.142788052558899, -0.07665801048278809, 0.2945699691772461, -0.7424979209899902, 0.63043212890625, 0.6213119029998779, -1.0278220176696777, 0.3452000021934509]
velocity: []
effort: []
---
header: 
  seq: 84513
  stamp: 
    secs: 1385030260
    nsecs: 195574348
  frame_id: /torso
name: ['HeadYaw', 'HeadPitch', 'LShoulderPitch', 'LShoulderRoll', 'LElbowYaw', 'LElbowRoll', 'LWristYaw', 'LHand', 'LHipYawPitch', 'LHipRoll', 'LHipPitch', 'LKneePitch', 'LAnklePitch', 'LAnkleRoll', 'RHipYawPitch', 'RHipRoll', 'RHipPitch', 'RKneePitch', 'RAnklePitch', 'RAnkleRoll', 'RShoulderPitch', 'RShoulderRoll', 'RElbowYaw', 'RElbowRoll', 'RWristYaw', 'RHand']
position: [0.14415407180786133, -0.26695799827575684, 0.570605993270874, -0.1733839511871338, -0.5630199909210205, -0.7178699970245361, 0.18557214736938477, 0.3700000047683716, 0.033789873123168945, -0.12727999687194824, -1.0538160800933838, 2.112546443939209, -1.0830459594726562, 0.1043538972735405, 0.033789873123168945, 0.06907200813293457, -1.0002098083496094, 2.112546443939209, -1.14125394821167, -0.07665801048278809, 0.2945699691772461, -0.7424979209899902, 0.63043212890625, 0.6213119029998779, -1.0278220176696777, 0.3452000021934509]
velocity: []
effort: []
---
header: 
  seq: 84514
  stamp: 
    secs: 1385030260
    nsecs: 227242722
  frame_id: /torso
name: ['HeadYaw', 'HeadPitch', 'LShoulderPitch', 'LShoulderRoll', 'LElbowYaw', 'LElbowRoll', 'LWristYaw', 'LHand', 'LHipYawPitch', 'LHipRoll', 'LHipPitch', 'LKneePitch', 'LAnklePitch', 'LAnkleRoll', 'RHipYawPitch', 'RHipRoll', 'RHipPitch', 'RKneePitch', 'RAnklePitch', 'RAnkleRoll', 'RShoulderPitch', 'RShoulderRoll', 'RElbowYaw', 'RElbowRoll', 'RWristYaw', 'RHand']
position: [0.14415407180786133, -0.26695799827575684, 0.570605993270874, -0.1733839511871338, -0.5630199909210205, -0.7163360118865967, 0.18557214736938477, 0.36959999799728394, 0.033789873123168945, -0.12727999687194824, -1.0538160800933838, 2.112546443939209, -1.0815119743347168, 0.10588788986206055, 0.033789873123168945, 0.06907200813293457, -1.0002098083496094, 2.112546443939209, -1.142788052558899, -0.07665801048278809, 0.2945699691772461, -0.7424979209899902, 0.63043212890625, 0.6213119029998779, -1.0278220176696777, 0.3452000021934509]
velocity: []
effort: []
---
header: 
  seq: 84515
  stamp: 
    secs: 1385030260
    nsecs: 276443024
  frame_id: /torso
name: ['HeadYaw', 'HeadPitch', 'LShoulderPitch', 'LShoulderRoll', 'LElbowYaw', 'LElbowRoll', 'LWristYaw', 'LHand', 'LHipYawPitch', 'LHipRoll', 'LHipPitch', 'LKneePitch', 'LAnklePitch', 'LAnkleRoll', 'RHipYawPitch', 'RHipRoll', 'RHipPitch', 'RKneePitch', 'RAnklePitch', 'RAnkleRoll', 'RShoulderPitch', 'RShoulderRoll', 'RElbowYaw', 'RElbowRoll', 'RWristYaw', 'RHand']
position: [0.14415407180786133, -0.2654240131378174, 0.5721399784088135, -0.1733839511871338, -0.5630199909210205, -0.7163360118865967, 0.18557214736938477, 0.3700000047683716, 0.033789873123168945, -0.12727999687194824, -1.0538160800933838, 2.112546443939209, -1.0815119743347168, 0.1043538972735405, 0.033789873123168945, 0.06907200813293457, -1.0002098083496094, 2.112546443939209, -1.142788052558899, -0.07665801048278809, 0.2945699691772461, -0.7424979209899902, 0.6319661140441895, 0.6213119029998779, -1.0278220176696777, 0.3452000021934509]
velocity: []
effort: []
---
header: 
  seq: 84516
  stamp: 
    secs: 1385030260
    nsecs: 314648701
  frame_id: /torso
name: ['HeadYaw', 'HeadPitch', 'LShoulderPitch', 'LShoulderRoll', 'LElbowYaw', 'LElbowRoll', 'LWristYaw', 'LHand', 'LHipYawPitch', 'LHipRoll', 'LHipPitch', 'LKneePitch', 'LAnklePitch', 'LAnkleRoll', 'RHipYawPitch', 'RHipRoll', 'RHipPitch', 'RKneePitch', 'RAnklePitch', 'RAnkleRoll', 'RShoulderPitch', 'RShoulderRoll', 'RElbowYaw', 'RElbowRoll', 'RWristYaw', 'RHand']
position: [0.14415407180786133, -0.26695799827575684, 0.570605993270874, -0.1733839511871338, -0.5630199909210205, -0.7178699970245361, 0.18557214736938477, 0.3700000047683716, 0.033789873123168945, -0.12727999687194824, -1.0538160800933838, 2.112546443939209, -1.0815119743347168, 0.1043538972735405, 0.033789873123168945, 0.06907200813293457, -1.0002098083496094, 2.112546443939209, -1.14125394821167, -0.07665801048278809, 0.2945699691772461, -0.7424979209899902, 0.63043212890625, 0.6213119029998779, -1.0278220176696777, 0.3452000021934509]
velocity: []
effort: []
---
header: 
  seq: 84517
  stamp: 
    secs: 1385030260
    nsecs: 348445491
  frame_id: /torso
name: ['HeadYaw', 'HeadPitch', 'LShoulderPitch', 'LShoulderRoll', 'LElbowYaw', 'LElbowRoll', 'LWristYaw', 'LHand', 'LHipYawPitch', 'LHipRoll', 'LHipPitch', 'LKneePitch', 'LAnklePitch', 'LAnkleRoll', 'RHipYawPitch', 'RHipRoll', 'RHipPitch', 'RKneePitch', 'RAnklePitch', 'RAnkleRoll', 'RShoulderPitch', 'RShoulderRoll', 'RElbowYaw', 'RElbowRoll', 'RWristYaw', 'RHand']
position: [0.14415407180786133, -0.26695799827575684, 0.570605993270874, -0.1733839511871338, -0.5630199909210205, -0.7178699970245361, 0.18557214736938477, 0.3700000047683716, 0.0353238582611084, -0.12727999687194824, -1.0538160800933838, 2.112546443939209, -1.0815119743347168, 0.1043538972735405, 0.0353238582611084, 0.06907200813293457, -0.9986758232116699, 2.112546443939209, -1.142788052558899, -0.07665801048278809, 0.2945699691772461, -0.7424979209899902, 0.63043212890625, 0.6213119029998779, -1.0278220176696777, 0.3452000021934509]
velocity: []
effort: []
---
header: 
  seq: 84518
  stamp: 
    secs: 1385030260
    nsecs: 395225290
  frame_id: /torso
name: ['HeadYaw', 'HeadPitch', 'LShoulderPitch', 'LShoulderRoll', 'LElbowYaw', 'LElbowRoll', 'LWristYaw', 'LHand', 'LHipYawPitch', 'LHipRoll', 'LHipPitch', 'LKneePitch', 'LAnklePitch', 'LAnkleRoll', 'RHipYawPitch', 'RHipRoll', 'RHipPitch', 'RKneePitch', 'RAnklePitch', 'RAnkleRoll', 'RShoulderPitch', 'RShoulderRoll', 'RElbowYaw', 'RElbowRoll', 'RWristYaw', 'RHand']
position: [0.14415407180786133, -0.26695799827575684, 0.570605993270874, -0.1733839511871338, -0.5630199909210205, -0.7163360118865967, 0.18557214736938477, 0.3700000047683716, 0.033789873123168945, -0.1288139820098877, -1.0538160800933838, 2.112546443939209, -1.0815119743347168, 0.1043538972735405, 0.033789873123168945, 0.06907200813293457, -1.0002098083496094, 2.112546443939209, -1.14125394821167, -0.07665801048278809, 0.2945699691772461, -0.7424979209899902, 0.63043212890625, 0.6213119029998779, -1.0293560028076172, 0.3452000021934509]
velocity: []
effort: []
---
header: 
  seq: 84519
  stamp: 
    secs: 1385030260
    nsecs: 426853607
  frame_id: /torso
name: ['HeadYaw', 'HeadPitch', 'LShoulderPitch', 'LShoulderRoll', 'LElbowYaw', 'LElbowRoll', 'LWristYaw', 'LHand', 'LHipYawPitch', 'LHipRoll', 'LHipPitch', 'LKneePitch', 'LAnklePitch', 'LAnkleRoll', 'RHipYawPitch', 'RHipRoll', 'RHipPitch', 'RKneePitch', 'RAnklePitch', 'RAnkleRoll', 'RShoulderPitch', 'RShoulderRoll', 'RElbowYaw', 'RElbowRoll', 'RWristYaw', 'RHand']
position: [0.14415407180786133, -0.26695799827575684, 0.570605993270874, -0.1733839511871338, -0.5630199909210205, -0.7178699970245361, 0.18557214736938477, 0.3700000047683716, 0.0353238582611084, -0.12727999687194824, -1.0538160800933838, 2.112546443939209, -1.0815119743347168, 0.10588788986206055, 0.0353238582611084, 0.06907200813293457, -1.0002098083496094, 2.112546443939209, -1.142788052558899, -0.07665801048278809, 0.2945699691772461, -0.7424979209899902, 0.63043212890625, 0.6213119029998779, -1.0293560028076172, 0.3452000021934509]
velocity: []
effort: []
---
header: 
  seq: 84520
  stamp: 
    secs: 1385030260
    nsecs: 468984082
  frame_id: /torso
name: ['HeadYaw', 'HeadPitch', 'LShoulderPitch', 'LShoulderRoll', 'LElbowYaw', 'LElbowRoll', 'LWristYaw', 'LHand', 'LHipYawPitch', 'LHipRoll', 'LHipPitch', 'LKneePitch', 'LAnklePitch', 'LAnkleRoll', 'RHipYawPitch', 'RHipRoll', 'RHipPitch', 'RKneePitch', 'RAnklePitch', 'RAnkleRoll', 'RShoulderPitch', 'RShoulderRoll', 'RElbowYaw', 'RElbowRoll', 'RWristYaw', 'RHand']
position: [0.14415407180786133, -0.26695799827575684, 0.570605993270874, -0.1733839511871338, -0.5630199909210205, -0.7178699970245361, 0.18557214736938477, 0.36959999799728394, 0.0353238582611084, -0.12727999687194824, -1.0538160800933838, 2.112546443939209, -1.0815119743347168, 0.10588788986206055, 0.0353238582611084, 0.06907200813293457, -1.0002098083496094, 2.112546443939209, -1.142788052558899, -0.07665801048278809, 0.2945699691772461, -0.7424979209899902, 0.63043212890625, 0.6213119029998779, -1.0278220176696777, 0.3452000021934509]
velocity: []
effort: []
---
header: 
  seq: 84521
  stamp: 
    secs: 1385030260
    nsecs: 513089320
  frame_id: /torso
name: ['HeadYaw', 'HeadPitch', 'LShoulderPitch', 'LShoulderRoll', 'LElbowYaw', 'LElbowRoll', 'LWristYaw', 'LHand', 'LHipYawPitch', 'LHipRoll', 'LHipPitch', 'LKneePitch', 'LAnklePitch', 'LAnkleRoll', 'RHipYawPitch', 'RHipRoll', 'RHipPitch', 'RKneePitch', 'RAnklePitch', 'RAnkleRoll', 'RShoulderPitch', 'RShoulderRoll', 'RElbowYaw', 'RElbowRoll', 'RWristYaw', 'RHand']
position: [0.14415407180786133, -0.26695799827575684, 0.5721399784088135, -0.1733839511871338, -0.5630199909210205, -0.7178699970245361, 0.18557214736938477, 0.3700000047683716, 0.033789873123168945, -0.12727999687194824, -1.0538160800933838, 2.112546443939209, -1.0815119743347168, 0.10588788986206055, 0.033789873123168945, 0.06907200813293457, -1.0002098083496094, 2.112546443939209, -1.14125394821167, -0.07665801048278809, 0.2945699691772461, -0.7424979209899902, 0.63043212890625, 0.6213119029998779, -1.0278220176696777, 0.3452000021934509]
velocity: []
effort: []
---
header: 
  seq: 84522
  stamp: 
    secs: 1385030260
    nsecs: 548822180
  frame_id: /torso
name: ['HeadYaw', 'HeadPitch', 'LShoulderPitch', 'LShoulderRoll', 'LElbowYaw', 'LElbowRoll', 'LWristYaw', 'LHand', 'LHipYawPitch', 'LHipRoll', 'LHipPitch', 'LKneePitch', 'LAnklePitch', 'LAnkleRoll', 'RHipYawPitch', 'RHipRoll', 'RHipPitch', 'RKneePitch', 'RAnklePitch', 'RAnkleRoll', 'RShoulderPitch', 'RShoulderRoll', 'RElbowYaw', 'RElbowRoll', 'RWristYaw', 'RHand']
position: [0.14415407180786133, -0.26695799827575684, 0.570605993270874, -0.1733839511871338, -0.5630199909210205, -0.7163360118865967, 0.18557214736938477, 0.3700000047683716, 0.033789873123168945, -0.12727999687194824, -1.0538160800933838, 2.112546443939209, -1.0815119743347168, 0.1043538972735405, 0.033789873123168945, 0.06907200813293457, -1.0002098083496094, 2.112546443939209, -1.142788052558899, -0.07665801048278809, 0.2945699691772461, -0.7424979209899902, 0.63043212890625, 0.6213119029998779, -1.0278220176696777, 0.3456000089645386]
velocity: []
effort: []
---
header: 
  seq: 84523
  stamp: 
    secs: 1385030260
    nsecs: 594684476
  frame_id: /torso
name: ['HeadYaw', 'HeadPitch', 'LShoulderPitch', 'LShoulderRoll', 'LElbowYaw', 'LElbowRoll', 'LWristYaw', 'LHand', 'LHipYawPitch', 'LHipRoll', 'LHipPitch', 'LKneePitch', 'LAnklePitch', 'LAnkleRoll', 'RHipYawPitch', 'RHipRoll', 'RHipPitch', 'RKneePitch', 'RAnklePitch', 'RAnkleRoll', 'RShoulderPitch', 'RShoulderRoll', 'RElbowYaw', 'RElbowRoll', 'RWristYaw', 'RHand']
position: [0.14415407180786133, -0.26695799827575684, 0.570605993270874, -0.1733839511871338, -0.5630199909210205, -0.7178699970245361, 0.18557214736938477, 0.36959999799728394, 0.033789873123168945, -0.12727999687194824, -1.0538160800933838, 2.112546443939209, -1.0815119743347168, 0.10588788986206055, 0.033789873123168945, 0.06907200813293457, -1.0002098083496094, 2.112546443939209, -1.14125394821167, -0.07665801048278809, 0.2945699691772461, -0.7424979209899902, 0.63043212890625, 0.6213119029998779, -1.0278220176696777, 0.3452000021934509]
velocity: []
effort: []
---
header: 
  seq: 84524
  stamp: 
    secs: 1385030260
    nsecs: 626608791
  frame_id: /torso
name: ['HeadYaw', 'HeadPitch', 'LShoulderPitch', 'LShoulderRoll', 'LElbowYaw', 'LElbowRoll', 'LWristYaw', 'LHand', 'LHipYawPitch', 'LHipRoll', 'LHipPitch', 'LKneePitch', 'LAnklePitch', 'LAnkleRoll', 'RHipYawPitch', 'RHipRoll', 'RHipPitch', 'RKneePitch', 'RAnklePitch', 'RAnkleRoll', 'RShoulderPitch', 'RShoulderRoll', 'RElbowYaw', 'RElbowRoll', 'RWristYaw', 'RHand']
position: [0.14415407180786133, -0.2654240131378174, 0.570605993270874, -0.1733839511871338, -0.5630199909210205, -0.7178699970245361, 0.18557214736938477, 0.3700000047683716, 0.0353238582611084, -0.12727999687194824, -1.0538160800933838, 2.112546443939209, -1.0815119743347168, 0.1043538972735405, 0.0353238582611084, 0.06907200813293457, -0.9986758232116699, 2.112546443939209, -1.14125394821167, -0.07665801048278809, 0.2945699691772461, -0.7424979209899902, 0.63043212890625, 0.6213119029998779, -1.0278220176696777, 0.3452000021934509]
velocity: []
effort: []
---
header: 
  seq: 84525
  stamp: 
    secs: 1385030260
    nsecs: 669022099
  frame_id: /torso
name: ['HeadYaw', 'HeadPitch', 'LShoulderPitch', 'LShoulderRoll', 'LElbowYaw', 'LElbowRoll', 'LWristYaw', 'LHand', 'LHipYawPitch', 'LHipRoll', 'LHipPitch', 'LKneePitch', 'LAnklePitch', 'LAnkleRoll', 'RHipYawPitch', 'RHipRoll', 'RHipPitch', 'RKneePitch', 'RAnklePitch', 'RAnkleRoll', 'RShoulderPitch', 'RShoulderRoll', 'RElbowYaw', 'RElbowRoll', 'RWristYaw', 'RHand']
position: [0.14415407180786133, -0.26695799827575684, 0.570605993270874, -0.1733839511871338, -0.5630199909210205, -0.7163360118865967, 0.18557214736938477, 0.36959999799728394, 0.0353238582611084, -0.1288139820098877, -1.0538160800933838, 2.112546443939209, -1.0815119743347168, 0.1043538972735405, 0.0353238582611084, 0.06907200813293457, -1.0002098083496094, 2.112546443939209, -1.14125394821167, -0.07665801048278809, 0.2945699691772461, -0.7424979209899902, 0.6319661140441895, 0.6213119029998779, -1.0278220176696777, 0.3452000021934509]
velocity: []
effort: []
---
header: 
  seq: 84526
  stamp: 
    secs: 1385030260
    nsecs: 714077908
  frame_id: /torso
name: ['HeadYaw', 'HeadPitch', 'LShoulderPitch', 'LShoulderRoll', 'LElbowYaw', 'LElbowRoll', 'LWristYaw', 'LHand', 'LHipYawPitch', 'LHipRoll', 'LHipPitch', 'LKneePitch', 'LAnklePitch', 'LAnkleRoll', 'RHipYawPitch', 'RHipRoll', 'RHipPitch', 'RKneePitch', 'RAnklePitch', 'RAnkleRoll', 'RShoulderPitch', 'RShoulderRoll', 'RElbowYaw', 'RElbowRoll', 'RWristYaw', 'RHand']
position: [0.14415407180786133, -0.2654240131378174, 0.570605993270874, -0.1733839511871338, -0.5630199909210205, -0.7163360118865967, 0.18557214736938477, 0.36959999799728394, 0.0353238582611084, -0.12727999687194824, -1.0538160800933838, 2.112546443939209, -1.0830459594726562, 0.1043538972735405, 0.0353238582611084, 0.06907200813293457, -1.0002098083496094, 2.112546443939209, -1.14125394821167, -0.07665801048278809, 0.2945699691772461, -0.7424979209899902, 0.6319661140441895, 0.6213119029998779, -1.0278220176696777, 0.3456000089645386]
velocity: []
effort: []
---
header: 
  seq: 84527
  stamp: 
    secs: 1385030260
    nsecs: 746877296
  frame_id: /torso
name: ['HeadYaw', 'HeadPitch', 'LShoulderPitch', 'LShoulderRoll', 'LElbowYaw', 'LElbowRoll', 'LWristYaw', 'LHand', 'LHipYawPitch', 'LHipRoll', 'LHipPitch', 'LKneePitch', 'LAnklePitch', 'LAnkleRoll', 'RHipYawPitch', 'RHipRoll', 'RHipPitch', 'RKneePitch', 'RAnklePitch', 'RAnkleRoll', 'RShoulderPitch', 'RShoulderRoll', 'RElbowYaw', 'RElbowRoll', 'RWristYaw', 'RHand']
position: [0.14415407180786133, -0.26695799827575684, 0.570605993270874, -0.1733839511871338, -0.5630199909210205, -0.7178699970245361, 0.18557214736938477, 0.3700000047683716, 0.0353238582611084, -0.1288139820098877, -1.0538160800933838, 2.112546443939209, -1.0830459594726562, 0.10588788986206055, 0.0353238582611084, 0.06907200813293457, -1.0002098083496094, 2.112546443939209, -1.142788052558899, -0.07665801048278809, 0.2945699691772461, -0.7424979209899902, 0.63043212890625, 0.6213119029998779, -1.0278220176696777, 0.3452000021934509]
velocity: []
effort: []
---
header: 
  seq: 84528
  stamp: 
    secs: 1385030260
    nsecs: 798564909
  frame_id: /torso
name: ['HeadYaw', 'HeadPitch', 'LShoulderPitch', 'LShoulderRoll', 'LElbowYaw', 'LElbowRoll', 'LWristYaw', 'LHand', 'LHipYawPitch', 'LHipRoll', 'LHipPitch', 'LKneePitch', 'LAnklePitch', 'LAnkleRoll', 'RHipYawPitch', 'RHipRoll', 'RHipPitch', 'RKneePitch', 'RAnklePitch', 'RAnkleRoll', 'RShoulderPitch', 'RShoulderRoll', 'RElbowYaw', 'RElbowRoll', 'RWristYaw', 'RHand']
position: [0.14415407180786133, -0.26695799827575684, 0.570605993270874, -0.1733839511871338, -0.5630199909210205, -0.7178699970245361, 0.18557214736938477, 0.36959999799728394, 0.033789873123168945, -0.12727999687194824, -1.0538160800933838, 2.112546443939209, -1.0815119743347168, 0.1043538972735405, 0.033789873123168945, 0.06907200813293457, -0.9986758232116699, 2.112546443939209, -1.142788052558899, -0.07665801048278809, 0.2945699691772461, -0.7424979209899902, 0.63043212890625, 0.6213119029998779, -1.0278220176696777, 0.3456000089645386]
velocity: []
effort: []
---
header: 
  seq: 84529
  stamp: 
    secs: 1385030260
    nsecs: 832169525
  frame_id: /torso
name: ['HeadYaw', 'HeadPitch', 'LShoulderPitch', 'LShoulderRoll', 'LElbowYaw', 'LElbowRoll', 'LWristYaw', 'LHand', 'LHipYawPitch', 'LHipRoll', 'LHipPitch', 'LKneePitch', 'LAnklePitch', 'LAnkleRoll', 'RHipYawPitch', 'RHipRoll', 'RHipPitch', 'RKneePitch', 'RAnklePitch', 'RAnkleRoll', 'RShoulderPitch', 'RShoulderRoll', 'RElbowYaw', 'RElbowRoll', 'RWristYaw', 'RHand']
position: [0.14415407180786133, -0.26695799827575684, 0.570605993270874, -0.1733839511871338, -0.5630199909210205, -0.7178699970245361, 0.18557214736938477, 0.3700000047683716, 0.0353238582611084, -0.1288139820098877, -1.0538160800933838, 2.112546443939209, -1.0815119743347168, 0.1043538972735405, 0.0353238582611084, 0.06907200813293457, -0.9986758232116699, 2.112546443939209, -1.14125394821167, -0.07665801048278809, 0.2945699691772461, -0.7409639358520508, 0.63043212890625, 0.6213119029998779, -1.0278220176696777, 0.3452000021934509]
velocity: []
effort: []
---
header: 
  seq: 84530
  stamp: 
    secs: 1385030260
    nsecs: 868453380
  frame_id: /torso
name: ['HeadYaw', 'HeadPitch', 'LShoulderPitch', 'LShoulderRoll', 'LElbowYaw', 'LElbowRoll', 'LWristYaw', 'LHand', 'LHipYawPitch', 'LHipRoll', 'LHipPitch', 'LKneePitch', 'LAnklePitch', 'LAnkleRoll', 'RHipYawPitch', 'RHipRoll', 'RHipPitch', 'RKneePitch', 'RAnklePitch', 'RAnkleRoll', 'RShoulderPitch', 'RShoulderRoll', 'RElbowYaw', 'RElbowRoll', 'RWristYaw', 'RHand']
position: [0.14415407180786133, -0.26695799827575684, 0.570605993270874, -0.1733839511871338, -0.5630199909210205, -0.7178699970245361, 0.18557214736938477, 0.3700000047683716, 0.0353238582611084, -0.12727999687194824, -1.0538160800933838, 2.112546443939209, -1.0815119743347168, 0.1043538972735405, 0.0353238582611084, 0.06907200813293457, -1.0002098083496094, 2.112546443939209, -1.142788052558899, -0.07665801048278809, 0.2945699691772461, -0.7424979209899902, 0.63043212890625, 0.6213119029998779, -1.0278220176696777, 0.3456000089645386]
velocity: []
effort: []
---
header: 
  seq: 84531
  stamp: 
    secs: 1385030260
    nsecs: 915819064
  frame_id: /torso
name: ['HeadYaw', 'HeadPitch', 'LShoulderPitch', 'LShoulderRoll', 'LElbowYaw', 'LElbowRoll', 'LWristYaw', 'LHand', 'LHipYawPitch', 'LHipRoll', 'LHipPitch', 'LKneePitch', 'LAnklePitch', 'LAnkleRoll', 'RHipYawPitch', 'RHipRoll', 'RHipPitch', 'RKneePitch', 'RAnklePitch', 'RAnkleRoll', 'RShoulderPitch', 'RShoulderRoll', 'RElbowYaw', 'RElbowRoll', 'RWristYaw', 'RHand']
position: [0.14415407180786133, -0.26695799827575684, 0.570605993270874, -0.1733839511871338, -0.5630199909210205, -0.7163360118865967, 0.18557214736938477, 0.3700000047683716, 0.033789873123168945, -0.1288139820098877, -1.0538160800933838, 2.112546443939209, -1.0815119743347168, 0.1043538972735405, 0.033789873123168945, 0.06907200813293457, -1.0002098083496094, 2.112546443939209, -1.14125394821167, -0.07665801048278809, 0.2945699691772461, -0.7424979209899902, 0.63043212890625, 0.6213119029998779, -1.0278220176696777, 0.3452000021934509]
velocity: []
effort: []
---
header: 
  seq: 84532
  stamp: 
    secs: 1385030260
    nsecs: 947036944
  frame_id: /torso
name: ['HeadYaw', 'HeadPitch', 'LShoulderPitch', 'LShoulderRoll', 'LElbowYaw', 'LElbowRoll', 'LWristYaw', 'LHand', 'LHipYawPitch', 'LHipRoll', 'LHipPitch', 'LKneePitch', 'LAnklePitch', 'LAnkleRoll', 'RHipYawPitch', 'RHipRoll', 'RHipPitch', 'RKneePitch', 'RAnklePitch', 'RAnkleRoll', 'RShoulderPitch', 'RShoulderRoll', 'RElbowYaw', 'RElbowRoll', 'RWristYaw', 'RHand']
position: [0.14415407180786133, -0.26695799827575684, 0.570605993270874, -0.1733839511871338, -0.5630199909210205, -0.7178699970245361, 0.18557214736938477, 0.3700000047683716, 0.033789873123168945, -0.12727999687194824, -1.0538160800933838, 2.112546443939209, -1.0815119743347168, 0.1043538972735405, 0.033789873123168945, 0.06907200813293457, -1.0002098083496094, 2.112546443939209, -1.142788052558899, -0.07665801048278809, 0.2945699691772461, -0.7424979209899902, 0.63043212890625, 0.6213119029998779, -1.0278220176696777, 0.3452000021934509]
velocity: []
effort: []
---
header: 
  seq: 84533
  stamp: 
    secs: 1385030260
    nsecs: 997539694
  frame_id: /torso
