header: 
  seq: 22872
  stamp: 
    secs: 1383212615
    nsecs: 284306610
  frame_id: /torso
name: ['HeadYaw', 'HeadPitch', 'LShoulderPitch', 'LShoulderRoll', 'LElbowYaw', 'LElbowRoll', 'LWristYaw', 'LHand', 'LHipYawPitch', 'LHipRoll', 'LHipPitch', 'LKneePitch', 'LAnklePitch', 'LAnkleRoll', 'RHipYawPitch', 'RHipRoll', 'RHipPitch', 'RKneePitch', 'RAnklePitch', 'RAnkleRoll', 'RShoulderPitch', 'RShoulderRoll', 'RElbowYaw', 'RElbowRoll', 'RWristYaw', 'RHand']
position: [0.5092461109161377, 0.440216064453125, 0.6120240688323975, 0.5031099319458008, -0.24394798278808594, -0.23466014862060547, -0.37740588188171387, 0.3676000237464905, 0.04146003723144531, -0.11347413063049316, -1.044612169265747, 2.112546443939209, -1.092249870300293, 0.08748006820678711, 0.04146003723144531, 0.07520794868469238, -1.0017437934875488, 2.112546443939209, -1.1397199630737305, -0.08432793617248535, 0.317579984664917, -0.8099939823150635, 0.513848066329956, 0.5936999320983887, -0.8376059532165527, 0.44519996643066406]
velocity: []
effort: []
---
header: 
  seq: 22873
  stamp: 
    secs: 1383212615
    nsecs: 324076662
  frame_id: /torso
name: ['HeadYaw', 'HeadPitch', 'LShoulderPitch', 'LShoulderRoll', 'LElbowYaw', 'LElbowRoll', 'LWristYaw', 'LHand', 'LHipYawPitch', 'LHipRoll', 'LHipPitch', 'LKneePitch', 'LAnklePitch', 'LAnkleRoll', 'RHipYawPitch', 'RHipRoll', 'RHipPitch', 'RKneePitch', 'RAnklePitch', 'RAnkleRoll', 'RShoulderPitch', 'RShoulderRoll', 'RElbowYaw', 'RElbowRoll', 'RWristYaw', 'RHand']
position: [0.5092461109161377, 0.440216064453125, 0.6120240688323975, 0.5031099319458008, -0.24394798278808594, -0.23466014862060547, -0.37740588188171387, 0.3676000237464905, 0.03992605209350586, -0.11194015294313431, -1.044612169265747, 2.112546443939209, -1.092249870300293, 0.08748006820678711, 0.03992605209350586, 0.07520794868469238, -1.0017437934875488, 2.112546443939209, -1.1397199630737305, -0.08432793617248535, 0.31604599952697754, -0.8115279674530029, 0.513848066329956, 0.5952339172363281, -0.8376059532165527, 0.44519996643066406]
velocity: []
effort: []
---
header: 
  seq: 22874
  stamp: 
    secs: 1383212615
    nsecs: 364095527
  frame_id: /torso
name: ['HeadYaw', 'HeadPitch', 'LShoulderPitch', 'LShoulderRoll', 'LElbowYaw', 'LElbowRoll', 'LWristYaw', 'LHand', 'LHipYawPitch', 'LHipRoll', 'LHipPitch', 'LKneePitch', 'LAnklePitch', 'LAnkleRoll', 'RHipYawPitch', 'RHipRoll', 'RHipPitch', 'RKneePitch', 'RAnklePitch', 'RAnkleRoll', 'RShoulderPitch', 'RShoulderRoll', 'RElbowYaw', 'RElbowRoll', 'RWristYaw', 'RHand']
position: [0.5092461109161377, 0.440216064453125, 0.6120240688323975, 0.5031099319458008, -0.24394798278808594, -0.23619413375854492, -0.37740588188171387, 0.3676000237464905, 0.03992605209350586, -0.11347413063049316, -1.044612169265747, 2.112546443939209, -1.092249870300293, 0.08748006820678711, 0.03992605209350586, 0.07520794868469238, -1.0017437934875488, 2.112546443939209, -1.1397199630737305, -0.08432793617248535, 0.31604599952697754, -0.8115279674530029, 0.513848066329956, 0.5936999320983887, -0.8376059532165527, 0.44519996643066406]
velocity: []
effort: []
---
header: 
  seq: 22875
  stamp: 
    secs: 1383212615
    nsecs: 404251004
  frame_id: /torso
name: ['HeadYaw', 'HeadPitch', 'LShoulderPitch', 'LShoulderRoll', 'LElbowYaw', 'LElbowRoll', 'LWristYaw', 'LHand', 'LHipYawPitch', 'LHipRoll', 'LHipPitch', 'LKneePitch', 'LAnklePitch', 'LAnkleRoll', 'RHipYawPitch', 'RHipRoll', 'RHipPitch', 'RKneePitch', 'RAnklePitch', 'RAnkleRoll', 'RShoulderPitch', 'RShoulderRoll', 'RElbowYaw', 'RElbowRoll', 'RWristYaw', 'RHand']
position: [0.5092461109161377, 0.440216064453125, 0.6120240688323975, 0.5031099319458008, -0.24394798278808594, -0.23619413375854492, -0.37740588188171387, 0.3676000237464905, 0.04146003723144531, -0.11194015294313431, -1.044612169265747, 2.112546443939209, -1.092249870300293, 0.08748006820678711, 0.04146003723144531, 0.07520794868469238, -1.0017437934875488, 2.112546443939209, -1.1397199630737305, -0.0858621597290039, 0.31604599952697754, -0.8115279674530029, 0.5153820514678955, 0.5936999320983887, -0.8376059532165527, 0.44519996643066406]
velocity: []
effort: []
---
header: 
  seq: 22876
  stamp: 
    secs: 1383212615
    nsecs: 444110453
  frame_id: /torso
name: ['HeadYaw', 'HeadPitch', 'LShoulderPitch', 'LShoulderRoll', 'LElbowYaw', 'LElbowRoll', 'LWristYaw', 'LHand', 'LHipYawPitch', 'LHipRoll', 'LHipPitch', 'LKneePitch', 'LAnklePitch', 'LAnkleRoll', 'RHipYawPitch', 'RHipRoll', 'RHipPitch', 'RKneePitch', 'RAnklePitch', 'RAnkleRoll', 'RShoulderPitch', 'RShoulderRoll', 'RElbowYaw', 'RElbowRoll', 'RWristYaw', 'RHand']
position: [0.5092461109161377, 0.440216064453125, 0.6120240688323975, 0.5031099319458008, -0.24394798278808594, -0.23619413375854492, -0.37740588188171387, 0.3676000237464905, 0.04146003723144531, -0.11347413063049316, -1.044612169265747, 2.112546443939209, -1.092249870300293, 0.08748006820678711, 0.04146003723144531, 0.07520794868469238, -1.0017437934875488, 2.112546443939209, -1.1397199630737305, -0.08432793617248535, 0.31604599952697754, -0.8115279674530029, 0.513848066329956, 0.5936999320983887, -0.8376059532165527, 0.44519996643066406]
velocity: []
effort: []
---
header: 
  seq: 22877
  stamp: 
    secs: 1383212615
    nsecs: 484335144
  frame_id: /torso
name: ['HeadYaw', 'HeadPitch', 'LShoulderPitch', 'LShoulderRoll', 'LElbowYaw', 'LElbowRoll', 'LWristYaw', 'LHand', 'LHipYawPitch', 'LHipRoll', 'LHipPitch', 'LKneePitch', 'LAnklePitch', 'LAnkleRoll', 'RHipYawPitch', 'RHipRoll', 'RHipPitch', 'RKneePitch', 'RAnklePitch', 'RAnkleRoll', 'RShoulderPitch', 'RShoulderRoll', 'RElbowYaw', 'RElbowRoll', 'RWristYaw', 'RHand']
position: [0.5092461109161377, 0.440216064453125, 0.6120240688323975, 0.5031099319458008, -0.24394798278808594, -0.23466014862060547, -0.37740588188171387, 0.3676000237464905, 0.04146003723144531, -0.11347413063049316, -1.044612169265747, 2.112546443939209, -1.092249870300293, 0.08748006820678711, 0.04146003723144531, 0.07674193382263184, -1.0017437934875488, 2.112546443939209, -1.1397199630737305, -0.08432793617248535, 0.31604599952697754, -0.8115279674530029, 0.5153820514678955, 0.5936999320983887, -0.8376059532165527, 0.44519996643066406]
velocity: []
effort: []
---
header: 
  seq: 22878
  stamp: 
    secs: 1383212615
    nsecs: 524357466
  frame_id: /torso
name: ['HeadYaw', 'HeadPitch', 'LShoulderPitch', 'LShoulderRoll', 'LElbowYaw', 'LElbowRoll', 'LWristYaw', 'LHand', 'LHipYawPitch', 'LHipRoll', 'LHipPitch', 'LKneePitch', 'LAnklePitch', 'LAnkleRoll', 'RHipYawPitch', 'RHipRoll', 'RHipPitch', 'RKneePitch', 'RAnklePitch', 'RAnkleRoll', 'RShoulderPitch', 'RShoulderRoll', 'RElbowYaw', 'RElbowRoll', 'RWristYaw', 'RHand']
position: [0.5092461109161377, 0.440216064453125, 0.6120240688323975, 0.5031099319458008, -0.24394798278808594, -0.23619413375854492, -0.37740588188171387, 0.36799997091293335, 0.03992605209350586, -0.11347413063049316, -1.044612169265747, 2.112546443939209, -1.092249870300293, 0.08748006820678711, 0.03992605209350586, 0.07674193382263184, -1.0017437934875488, 2.112546443939209, -1.1397199630737305, -0.08432793617248535, 0.317579984664917, -0.8115279674530029, 0.513848066329956, 0.5936999320983887, -0.8376059532165527, 0.44519996643066406]
velocity: []
effort: []
---
header: 
  seq: 22879
  stamp: 
    secs: 1383212615
    nsecs: 564363305
  frame_id: /torso
name: ['HeadYaw', 'HeadPitch', 'LShoulderPitch', 'LShoulderRoll', 'LElbowYaw', 'LElbowRoll', 'LWristYaw', 'LHand', 'LHipYawPitch', 'LHipRoll', 'LHipPitch', 'LKneePitch', 'LAnklePitch', 'LAnkleRoll', 'RHipYawPitch', 'RHipRoll', 'RHipPitch', 'RKneePitch', 'RAnklePitch', 'RAnkleRoll', 'RShoulderPitch', 'RShoulderRoll', 'RElbowYaw', 'RElbowRoll', 'RWristYaw', 'RHand']
position: [0.5077121257781982, 0.440216064453125, 0.6120240688323975, 0.5031099319458008, -0.24394798278808594, -0.23466014862060547, -0.37740588188171387, 0.3676000237464905, 0.04146003723144531, -0.11194015294313431, -1.044612169265747, 2.112546443939209, -1.092249870300293, 0.08748006820678711, 0.04146003723144531, 0.07520794868469238, -1.0017437934875488, 2.112546443939209, -1.1397199630737305, -0.08432793617248535, 0.31604599952697754, -0.8115279674530029, 0.513848066329956, 0.5936999320983887, -0.8376059532165527, 0.44519996643066406]
velocity: []
effort: []
---
header: 
  seq: 22880
  stamp: 
    secs: 1383212615
    nsecs: 604620472
  frame_id: /torso
name: ['HeadYaw', 'HeadPitch', 'LShoulderPitch', 'LShoulderRoll', 'LElbowYaw', 'LElbowRoll', 'LWristYaw', 'LHand', 'LHipYawPitch', 'LHipRoll', 'LHipPitch', 'LKneePitch', 'LAnklePitch', 'LAnkleRoll', 'RHipYawPitch', 'RHipRoll', 'RHipPitch', 'RKneePitch', 'RAnklePitch', 'RAnkleRoll', 'RShoulderPitch', 'RShoulderRoll', 'RElbowYaw', 'RElbowRoll', 'RWristYaw', 'RHand']
position: [0.5077121257781982, 0.440216064453125, 0.6120240688323975, 0.5031099319458008, -0.24394798278808594, -0.23466014862060547, -0.37740588188171387, 0.36799997091293335, 0.03992605209350586, -0.11194015294313431, -1.044612169265747, 2.112546443939209, -1.092249870300293, 0.08748006820678711, 0.03992605209350586, 0.07520794868469238, -1.0002098083496094, 2.112546443939209, -1.1397199630737305, -0.08432793617248535, 0.31604599952697754, -0.8115279674530029, 0.513848066329956, 0.5936999320983887, -0.8376059532165527, 0.44519996643066406]
velocity: []
effort: []
---
header: 
  seq: 22881
  stamp: 
    secs: 1383212615
    nsecs: 644262049
  frame_id: /torso
name: ['HeadYaw', 'HeadPitch', 'LShoulderPitch', 'LShoulderRoll', 'LElbowYaw', 'LElbowRoll', 'LWristYaw', 'LHand', 'LHipYawPitch', 'LHipRoll', 'LHipPitch', 'LKneePitch', 'LAnklePitch', 'LAnkleRoll', 'RHipYawPitch', 'RHipRoll', 'RHipPitch', 'RKneePitch', 'RAnklePitch', 'RAnkleRoll', 'RShoulderPitch', 'RShoulderRoll', 'RElbowYaw', 'RElbowRoll', 'RWristYaw', 'RHand']
position: [0.5092461109161377, 0.440216064453125, 0.6120240688323975, 0.5031099319458008, -0.24394798278808594, -0.23466014862060547, -0.37740588188171387, 0.3676000237464905, 0.03992605209350586, -0.11194015294313431, -1.044612169265747, 2.112546443939209, -1.092249870300293, 0.08748006820678711, 0.03992605209350586, 0.07520794868469238, -1.0002098083496094, 2.112546443939209, -1.1397199630737305, -0.08432793617248535, 0.31604599952697754, -0.8115279674530029, 0.513848066329956, 0.5936999320983887, -0.8376059532165527, 0.44519996643066406]
velocity: []
effort: []
---
header: 
  seq: 22882
  stamp: 
    secs: 1383212615
    nsecs: 684444240
  frame_id: /torso
name: ['HeadYaw', 'HeadPitch', 'LShoulderPitch', 'LShoulderRoll', 'LElbowYaw', 'LElbowRoll', 'LWristYaw', 'LHand', 'LHipYawPitch', 'LHipRoll', 'LHipPitch', 'LKneePitch', 'LAnklePitch', 'LAnkleRoll', 'RHipYawPitch', 'RHipRoll', 'RHipPitch', 'RKneePitch', 'RAnklePitch', 'RAnkleRoll', 'RShoulderPitch', 'RShoulderRoll', 'RElbowYaw', 'RElbowRoll', 'RWristYaw', 'RHand']
position: [0.5092461109161377, 0.440216064453125, 0.6120240688323975, 0.5015759468078613, -0.24394798278808594, -0.23466014862060547, -0.37740588188171387, 0.3676000237464905, 0.03992605209350586, -0.11347413063049316, -1.044612169265747, 2.112546443939209, -1.092249870300293, 0.08748006820678711, 0.03992605209350586, 0.07520794868469238, -1.0002098083496094, 2.112546443939209, -1.1397199630737305, -0.08432793617248535, 0.31604599952697754, -0.8099939823150635, 0.513848066329956, 0.5936999320983887, -0.8376059532165527, 0.44519996643066406]
velocity: []
effort: []
---
header: 
  seq: 22883
  stamp: 
    secs: 1383212615
    nsecs: 723881076
  frame_id: /torso
name: ['HeadYaw', 'HeadPitch', 'LShoulderPitch', 'LShoulderRoll', 'LElbowYaw', 'LElbowRoll', 'LWristYaw', 'LHand', 'LHipYawPitch', 'LHipRoll', 'LHipPitch', 'LKneePitch', 'LAnklePitch', 'LAnkleRoll', 'RHipYawPitch', 'RHipRoll', 'RHipPitch', 'RKneePitch', 'RAnklePitch', 'RAnkleRoll', 'RShoulderPitch', 'RShoulderRoll', 'RElbowYaw', 'RElbowRoll', 'RWristYaw', 'RHand']
position: [0.5092461109161377, 0.440216064453125, 0.6120240688323975, 0.5031099319458008, -0.24394798278808594, -0.23466014862060547, -0.37740588188171387, 0.3676000237464905, 0.03992605209350586, -0.11194015294313431, -1.044612169265747, 2.112546443939209, -1.092249870300293, 0.08748006820678711, 0.03992605209350586, 0.07674193382263184, -1.0017437934875488, 2.112546443939209, -1.1397199630737305, -0.08432793617248535, 0.31604599952697754, -0.8115279674530029, 0.513848066329956, 0.5936999320983887, -0.8376059532165527, 0.44519996643066406]
velocity: []
effort: []
---
header: 
  seq: 22884
  stamp: 
    secs: 1383212615
    nsecs: 764385450
  frame_id: /torso
name: ['HeadYaw', 'HeadPitch', 'LShoulderPitch', 'LShoulderRoll', 'LElbowYaw', 'LElbowRoll', 'LWristYaw', 'LHand', 'LHipYawPitch', 'LHipRoll', 'LHipPitch', 'LKneePitch', 'LAnklePitch', 'LAnkleRoll', 'RHipYawPitch', 'RHipRoll', 'RHipPitch', 'RKneePitch', 'RAnklePitch', 'RAnkleRoll', 'RShoulderPitch', 'RShoulderRoll', 'RElbowYaw', 'RElbowRoll', 'RWristYaw', 'RHand']
position: [0.5092461109161377, 0.440216064453125, 0.6120240688323975, 0.5015759468078613, -0.24394798278808594, -0.23466014862060547, -0.37740588188171387, 0.3676000237464905, 0.04146003723144531, -0.11347413063049316, -1.044612169265747, 2.112546443939209, -1.092249870300293, 0.08748006820678711, 0.04146003723144531, 0.07520794868469238, -1.0017437934875488, 2.112546443939209, -1.1397199630737305, -0.08432793617248535, 0.317579984664917, -0.8115279674530029, 0.513848066329956, 0.5936999320983887, -0.8376059532165527, 0.44519996643066406]
velocity: []
effort: []
---
header: 
  seq: 22885
  stamp: 
    secs: 1383212615
    nsecs: 804073402
  frame_id: /torso
name: ['HeadYaw', 'HeadPitch', 'LShoulderPitch', 'LShoulderRoll', 'LElbowYaw', 'LElbowRoll', 'LWristYaw', 'LHand', 'LHipYawPitch', 'LHipRoll', 'LHipPitch', 'LKneePitch', 'LAnklePitch', 'LAnkleRoll', 'RHipYawPitch', 'RHipRoll', 'RHipPitch', 'RKneePitch', 'RAnklePitch', 'RAnkleRoll', 'RShoulderPitch', 'RShoulderRoll', 'RElbowYaw', 'RElbowRoll', 'RWristYaw', 'RHand']
position: [0.5092461109161377, 0.440216064453125, 0.6120240688323975, 0.5031099319458008, -0.24394798278808594, -0.23466014862060547, -0.3758718967437744, 0.3676000237464905, 0.03992605209350586, -0.11194015294313431, -1.044612169265747, 2.112546443939209, -1.092249870300293, 0.08748006820678711, 0.03992605209350586, 0.07674193382263184, -1.0017437934875488, 2.112546443939209, -1.1397199630737305, -0.08432793617248535, 0.31604599952697754, -0.8115279674530029, 0.513848066329956, 0.5952339172363281, -0.8376059532165527, 0.44519996643066406]
velocity: []
effort: []
---
header: 
  seq: 22886
  stamp: 
    secs: 1383212615
    nsecs: 844132321
  frame_id: /torso
name: ['HeadYaw', 'HeadPitch', 'LShoulderPitch', 'LShoulderRoll', 'LElbowYaw', 'LElbowRoll', 'LWristYaw', 'LHand', 'LHipYawPitch', 'LHipRoll', 'LHipPitch', 'LKneePitch', 'LAnklePitch', 'LAnkleRoll', 'RHipYawPitch', 'RHipRoll', 'RHipPitch', 'RKneePitch', 'RAnklePitch', 'RAnkleRoll', 'RShoulderPitch', 'RShoulderRoll', 'RElbowYaw', 'RElbowRoll', 'RWristYaw', 'RHand']
position: [0.5077121257781982, 0.440216064453125, 0.6120240688323975, 0.5031099319458008, -0.24394798278808594, -0.23466014862060547, -0.37740588188171387, 0.3676000237464905, 0.03992605209350586, -0.11347413063049316, -1.044612169265747, 2.112546443939209, -1.092249870300293, 0.08748006820678711, 0.03992605209350586, 0.07520794868469238, -1.0002098083496094, 2.112546443939209, -1.1397199630737305, -0.08432793617248535, 0.31604599952697754, -0.8115279674530029, 0.5153820514678955, 0.5952339172363281, -0.8376059532165527, 0.44519996643066406]
velocity: []
effort: []
---
header: 
  seq: 22887
  stamp: 
    secs: 1383212615
    nsecs: 884633167
  frame_id: /torso
name: ['HeadYaw', 'HeadPitch', 'LShoulderPitch', 'LShoulderRoll', 'LElbowYaw', 'LElbowRoll', 'LWristYaw', 'LHand', 'LHipYawPitch', 'LHipRoll', 'LHipPitch', 'LKneePitch', 'LAnklePitch', 'LAnkleRoll', 'RHipYawPitch', 'RHipRoll', 'RHipPitch', 'RKneePitch', 'RAnklePitch', 'RAnkleRoll', 'RShoulderPitch', 'RShoulderRoll', 'RElbowYaw', 'RElbowRoll', 'RWristYaw', 'RHand']
position: [0.5092461109161377, 0.440216064453125, 0.6120240688323975, 0.5031099319458008, -0.24394798278808594, -0.23466014862060547, -0.37740588188171387, 0.3676000237464905, 0.03992605209350586, -0.11347413063049316, -1.044612169265747, 2.112546443939209, -1.092249870300293, 0.08748006820678711, 0.03992605209350586, 0.07520794868469238, -1.0017437934875488, 2.112546443939209, -1.1397199630737305, -0.08432793617248535, 0.31604599952697754, -0.8099939823150635, 0.5153820514678955, 0.5936999320983887, -0.8376059532165527, 0.4448000192642212]
velocity: []
effort: []
---
header: 
  seq: 22888
  stamp: 
    secs: 1383212615
    nsecs: 924095775
  frame_id: /torso
name: ['HeadYaw', 'HeadPitch', 'LShoulderPitch', 'LShoulderRoll', 'LElbowYaw', 'LElbowRoll', 'LWristYaw', 'LHand', 'LHipYawPitch', 'LHipRoll', 'LHipPitch', 'LKneePitch', 'LAnklePitch', 'LAnkleRoll', 'RHipYawPitch', 'RHipRoll', 'RHipPitch', 'RKneePitch', 'RAnklePitch', 'RAnkleRoll', 'RShoulderPitch', 'RShoulderRoll', 'RElbowYaw', 'RElbowRoll', 'RWristYaw', 'RHand']
position: [0.5092461109161377, 0.440216064453125, 0.6120240688323975, 0.5031099319458008, -0.24394798278808594, -0.23466014862060547, -0.3758718967437744, 0.3676000237464905, 0.03992605209350586, -0.11347413063049316, -1.044612169265747, 2.112546443939209, -1.092249870300293, 0.08748006820678711, 0.03992605209350586, 0.07674193382263184, -1.0017437934875488, 2.112546443939209, -1.1397199630737305, -0.08432793617248535, 0.31604599952697754, -0.8115279674530029, 0.513848066329956, 0.5936999320983887, -0.8376059532165527, 0.44519996643066406]
velocity: []
effort: []
---
header: 
  seq: 22889
  stamp: 
    secs: 1383212615
    nsecs: 964833210
  frame_id: /torso
name: ['HeadYaw', 'HeadPitch', 'LShoulderPitch', 'LShoulderRoll', 'LElbowYaw', 'LElbowRoll', 'LWristYaw', 'LHand', 'LHipYawPitch', 'LHipRoll', 'LHipPitch', 'LKneePitch', 'LAnklePitch', 'LAnkleRoll', 'RHipYawPitch', 'RHipRoll', 'RHipPitch', 'RKneePitch', 'RAnklePitch', 'RAnkleRoll', 'RShoulderPitch', 'RShoulderRoll', 'RElbowYaw', 'RElbowRoll', 'RWristYaw', 'RHand']
position: [0.5092461109161377, 0.440216064453125, 0.6120240688323975, 0.5031099319458008, -0.24394798278808594, -0.23619413375854492, -0.37740588188171387, 0.3676000237464905, 0.03992605209350586, -0.11194015294313431, -1.044612169265747, 2.112546443939209, -1.092249870300293, 0.08748006820678711, 0.03992605209350586, 0.07674193382263184, -1.0017437934875488, 2.112546443939209, -1.1397199630737305, -0.08432793617248535, 0.317579984664917, -0.8099939823150635, 0.513848066329956, 0.5936999320983887, -0.8376059532165527, 0.44519996643066406]
velocity: []
effort: []
---
header: 
  seq: 22890
  stamp: 
    secs: 1383212616
    nsecs: 4099665
  frame_id: /torso
name: ['HeadYaw', 'HeadPitch', 'LShoulderPitch', 'LShoulderRoll', 'LElbowYaw', 'LElbowRoll', 'LWristYaw', 'LHand', 'LHipYawPitch', 'LHipRoll', 'LHipPitch', 'LKneePitch', 'LAnklePitch', 'LAnkleRoll', 'RHipYawPitch', 'RHipRoll', 'RHipPitch', 'RKneePitch', 'RAnklePitch', 'RAnkleRoll', 'RShoulderPitch', 'RShoulderRoll', 'RElbowYaw', 'RElbowRoll', 'RWristYaw', 'RHand']
position: [0.5092461109161377, 0.440216064453125, 0.6120240688323975, 0.5031099319458008, -0.24394798278808594, -0.23466014862060547, -0.3758718967437744, 0.3676000237464905, 0.04146003723144531, -0.11194015294313431, -1.044612169265747, 2.112546443939209, -1.092249870300293, 0.08748006820678711, 0.04146003723144531, 0.07520794868469238, -1.0017437934875488, 2.112546443939209, -1.1397199630737305, -0.08432793617248535, 0.317579984664917, -0.8115279674530029, 0.513848066329956, 0.5936999320983887, -0.8376059532165527, 0.44519996643066406]
velocity: []
effort: []
---
header: 
  seq: 22891
  stamp: 
    secs: 1383212616
    nsecs: 44449583
  frame_id: /torso
name: ['HeadYaw', 'HeadPitch', 'LShoulderPitch', 'LShoulderRoll', 'LElbowYaw', 'LElbowRoll', 'LWristYaw', 'LHand', 'LHipYawPitch', 'LHipRoll', 'LHipPitch', 'LKneePitch', 'LAnklePitch', 'LAnkleRoll', 'RHipYawPitch', 'RHipRoll', 'RHipPitch', 'RKneePitch', 'RAnklePitch', 'RAnkleRoll', 'RShoulderPitch', 'RShoulderRoll', 'RElbowYaw', 'RElbowRoll', 'RWristYaw', 'RHand']
position: [0.5092461109161377, 0.440216064453125, 0.6120240688323975, 0.5031099319458008, -0.24394798278808594, -0.23466014862060547, -0.37740588188171387, 0.3676000237464905, 0.03992605209350586, -0.11347413063049316, -1.044612169265747, 2.112546443939209, -1.092249870300293, 0.08748006820678711, 0.03992605209350586, 0.07520794868469238, -1.0017437934875488, 2.112546443939209, -1.1397199630737305, -0.08432793617248535, 0.317579984664917, -0.8115279674530029, 0.513848066329956, 0.5936999320983887, -0.8376059532165527, 0.44519996643066406]
velocity: []
effort: []
---
header: 
  seq: 22892
  stamp: 
    secs: 1383212616
    nsecs: 84820732
  frame_id: /torso
name: ['HeadYaw', 'HeadPitch', 'LShoulderPitch', 'LShoulderRoll', 'LElbowYaw', 'LElbowRoll', 'LWristYaw', 'LHand', 'LHipYawPitch', 'LHipRoll', 'LHipPitch', 'LKneePitch', 'LAnklePitch', 'LAnkleRoll', 'RHipYawPitch', 'RHipRoll', 'RHipPitch', 'RKneePitch', 'RAnklePitch', 'RAnkleRoll', 'RShoulderPitch', 'RShoulderRoll', 'RElbowYaw', 'RElbowRoll', 'RWristYaw', 'RHand']
position: [0.5092461109161377, 0.440216064453125, 0.6120240688323975, 0.5031099319458008, -0.24394798278808594, -0.23466014862060547, -0.3758718967437744, 0.3676000237464905, 0.03992605209350586, -0.11194015294313431, -1.044612169265747, 2.112546443939209, -1.092249870300293, 0.08748006820678711, 0.03992605209350586, 0.07520794868469238, -1.0017437934875488, 2.112546443939209, -1.1397199630737305, -0.08432793617248535, 0.31604599952697754, -0.8115279674530029, 0.513848066329956, 0.5936999320983887, -0.8376059532165527, 0.4448000192642212]
velocity: []
effort: []
---
header: 
  seq: 22893
  stamp: 
    secs: 1383212616
    nsecs: 124265773
  frame_id: /torso
name: ['HeadYaw', 'HeadPitch', 'LShoulderPitch', 'LShoulderRoll', 'LElbowYaw', 'LElbowRoll', 'LWristYaw', 'LHand', 'LHipYawPitch', 'LHipRoll', 'LHipPitch', 'LKneePitch', 'LAnklePitch', 'LAnkleRoll', 'RHipYawPitch', 'RHipRoll', 'RHipPitch', 'RKneePitch', 'RAnklePitch', 'RAnkleRoll', 'RShoulderPitch', 'RShoulderRoll', 'RElbowYaw', 'RElbowRoll', 'RWristYaw', 'RHand']
position: [0.5092461109161377, 0.440216064453125, 0.6120240688323975, 0.5031099319458008, -0.24394798278808594, -0.23619413375854492, -0.37740588188171387, 0.3676000237464905, 0.03992605209350586, -0.11194015294313431, -1.044612169265747, 2.112546443939209, -1.092249870300293, 0.08748006820678711, 0.03992605209350586, 0.07520794868469238, -1.0017437934875488, 2.112546443939209, -1.1397199630737305, -0.08432793617248535, 0.31604599952697754, -0.8115279674530029, 0.5153820514678955, 0.5936999320983887, -0.8376059532165527, 0.44519996643066406]
velocity: []
effort: []
---
header: 
  seq: 22894
  stamp: 
    secs: 1383212616
    nsecs: 164434834
  frame_id: /torso
name: ['HeadYaw', 'HeadPitch', 'LShoulderPitch', 'LShoulderRoll', 'LElbowYaw', 'LElbowRoll', 'LWristYaw', 'LHand', 'LHipYawPitch', 'LHipRoll', 'LHipPitch', 'LKneePitch', 'LAnklePitch', 'LAnkleRoll', 'RHipYawPitch', 'RHipRoll', 'RHipPitch', 'RKneePitch', 'RAnklePitch', 'RAnkleRoll', 'RShoulderPitch', 'RShoulderRoll', 'RElbowYaw', 'RElbowRoll', 'RWristYaw', 'RHand']
position: [0.5092461109161377, 0.440216064453125, 0.6120240688323975, 0.5031099319458008, -0.24394798278808594, -0.23466014862060547, -0.37740588188171387, 0.3676000237464905, 0.03992605209350586, -0.11347413063049316, -1.044612169265747, 2.112546443939209, -1.092249870300293, 0.08748006820678711, 0.03992605209350586, 0.07520794868469238, -1.0017437934875488, 2.112546443939209, -1.1397199630737305, -0.08432793617248535, 0.31604599952697754, -0.8115279674530029, 0.513848066329956, 0.5936999320983887, -0.8376059532165527, 0.44519996643066406]
velocity: []
effort: []
---
header: 
  seq: 22895
  stamp: 
    secs: 1383212616
    nsecs: 204081581
  frame_id: /torso
name: ['HeadYaw', 'HeadPitch', 'LShoulderPitch', 'LShoulderRoll', 'LElbowYaw', 'LElbowRoll', 'LWristYaw', 'LHand', 'LHipYawPitch', 'LHipRoll', 'LHipPitch', 'LKneePitch', 'LAnklePitch', 'LAnkleRoll', 'RHipYawPitch', 'RHipRoll', 'RHipPitch', 'RKneePitch', 'RAnklePitch', 'RAnkleRoll', 'RShoulderPitch', 'RShoulderRoll', 'RElbowYaw', 'RElbowRoll', 'RWristYaw', 'RHand']
position: [0.5077121257781982, 0.440216064453125, 0.6120240688323975, 0.5031099319458008, -0.24394798278808594, -0.23466014862060547, -0.37740588188171387, 0.3676000237464905, 0.03992605209350586, -0.11347413063049316, -1.044612169265747, 2.112546443939209, -1.092249870300293, 0.08748006820678711, 0.03992605209350586, 0.07674193382263184, -1.0002098083496094, 2.112546443939209, -1.1397199630737305, -0.08432793617248535, 0.317579984664917, -0.8115279674530029, 0.513848066329956, 0.5952339172363281, -0.8376059532165527, 0.44519996643066406]
velocity: []
effort: []
---
header: 
  seq: 22896
  stamp: 
    secs: 1383212616
    nsecs: 244468095
  frame_id: /torso
name: ['HeadYaw', 'HeadPitch', 'LShoulderPitch', 'LShoulderRoll', 'LElbowYaw', 'LElbowRoll', 'LWristYaw', 'LHand', 'LHipYawPitch', 'LHipRoll', 'LHipPitch', 'LKneePitch', 'LAnklePitch', 'LAnkleRoll', 'RHipYawPitch', 'RHipRoll', 'RHipPitch', 'RKneePitch', 'RAnklePitch', 'RAnkleRoll', 'RShoulderPitch', 'RShoulderRoll', 'RElbowYaw', 'RElbowRoll', 'RWristYaw', 'RHand']
position: [0.5092461109161377, 0.440216064453125, 0.6120240688323975, 0.5031099319458008, -0.24394798278808594, -0.23466014862060547, -0.37740588188171387, 0.3676000237464905, 0.03992605209350586, -0.11194015294313431, -1.044612169265747, 2.112546443939209, -1.092249870300293, 0.08748006820678711, 0.03992605209350586, 0.07520794868469238, -1.0017437934875488, 2.112546443939209, -1.1397199630737305, -0.08432793617248535, 0.31604599952697754, -0.8099939823150635, 0.513848066329956, 0.5936999320983887, -0.8376059532165527, 0.4448000192642212]
velocity: []
effort: []
---
header: 
  seq: 22897
  stamp: 
    secs: 1383212616
    nsecs: 284943030
  frame_id: /torso
name: ['HeadYaw', 'HeadPitch', 'LShoulderPitch', 'LShoulderRoll', 'LElbowYaw', 'LElbowRoll', 'LWristYaw', 'LHand', 'LHipYawPitch', 'LHipRoll', 'LHipPitch', 'LKneePitch', 'LAnklePitch', 'LAnkleRoll', 'RHipYawPitch', 'RHipRoll', 'RHipPitch', 'RKneePitch', 'RAnklePitch', 'RAnkleRoll', 'RShoulderPitch', 'RShoulderRoll', 'RElbowYaw', 'RElbowRoll', 'RWristYaw', 'RHand']
position: [0.5077121257781982, 0.440216064453125, 0.6120240688323975, 0.5031099319458008, -0.24394798278808594, -0.23466014862060547, -0.37740588188171387, 0.3676000237464905, 0.03992605209350586, -0.11194015294313431, -1.044612169265747, 2.112546443939209, -1.092249870300293, 0.08748006820678711, 0.03992605209350586, 0.07520794868469238, -1.0017437934875488, 2.112546443939209, -1.1397199630737305, -0.08432793617248535, 0.31604599952697754, -0.8115279674530029, 0.513848066329956, 0.5936999320983887, -0.8376059532165527, 0.44519996643066406]
velocity: []
effort: []
---
header: 
  seq: 22898
  stamp: 
    secs: 1383212616
    nsecs: 324234102
  frame_id: /torso
name: ['HeadYaw', 'HeadPitch', 'LShoulderPitch', 'LShoulderRoll', 'LElbowYaw', 'LElbowRoll', 'LWristYaw', 'LHand', 'LHipYawPitch', 'LHipRoll', 'LHipPitch', 'LKneePitch', 'LAnklePitch', 'LAnkleRoll', 'RHipYawPitch', 'RHipRoll', 'RHipPitch', 'RKneePitch', 'RAnklePitch', 'RAnkleRoll', 'RShoulderPitch', 'RShoulderRoll', 'RElbowYaw', 'RElbowRoll', 'RWristYaw', 'RHand']
position: [0.5092461109161377, 0.440216064453125, 0.6120240688323975, 0.5031099319458008, -0.24394798278808594, -0.23466014862060547, -0.37740588188171387, 0.3676000237464905, 0.03992605209350586, -0.11347413063049316, -1.044612169265747, 2.112546443939209, -1.092249870300293, 0.08748006820678711, 0.03992605209350586, 0.07520794868469238, -1.0017437934875488, 2.112546443939209, -1.1397199630737305, -0.08432793617248535, 0.31604599952697754, -0.8115279674530029, 0.5153820514678955, 0.5952339172363281, -0.8376059532165527, 0.44519996643066406]
velocity: []
effort: []
---
header: 
  seq: 22899
  stamp: 
    secs: 1383212616
    nsecs: 364475101
  frame_id: /torso
name: ['HeadYaw', 'HeadPitch', 'LShoulderPitch', 'LShoulderRoll', 'LElbowYaw', 'LElbowRoll', 'LWristYaw', 'LHand', 'LHipYawPitch', 'LHipRoll', 'LHipPitch', 'LKneePitch', 'LAnklePitch', 'LAnkleRoll', 'RHipYawPitch', 'RHipRoll', 'RHipPitch', 'RKneePitch', 'RAnklePitch', 'RAnkleRoll', 'RShoulderPitch', 'RShoulderRoll', 'RElbowYaw', 'RElbowRoll', 'RWristYaw', 'RHand']
position: [0.5092461109161377, 0.440216064453125, 0.6120240688323975, 0.5031099319458008, -0.24394798278808594, -0.23619413375854492, -0.37740588188171387, 0.3676000237464905, 0.03992605209350586, -0.11347413063049316, -1.044612169265747, 2.112546443939209, -1.092249870300293, 0.08748006820678711, 0.03992605209350586, 0.07520794868469238, -1.0017437934875488, 2.112546443939209, -1.1397199630737305, -0.08432793617248535, 0.31604599952697754, -0.8115279674530029, 0.513848066329956, 0.5952339172363281, -0.8376059532165527, 0.44519996643066406]
velocity: []
effort: []
---
header: 
  seq: 22900
  stamp: 
    secs: 1383212616
    nsecs: 404217671
  frame_id: /torso
name: ['HeadYaw', 'HeadPitch', 'LShoulderPitch', 'LShoulderRoll', 'LElbowYaw', 'LElbowRoll', 'LWristYaw', 'LHand', 'LHipYawPitch', 'LHipRoll', 'LHipPitch', 'LKneePitch', 'LAnklePitch', 'LAnkleRoll', 'RHipYawPitch', 'RHipRoll', 'RHipPitch', 'RKneePitch', 'RAnklePitch', 'RAnkleRoll', 'RShoulderPitch', 'RShoulderRoll', 'RElbowYaw', 'RElbowRoll', 'RWristYaw', 'RHand']
position: [0.5077121257781982, 0.440216064453125, 0.6120240688323975, 0.5031099319458008, -0.24394798278808594, -0.23466014862060547, -0.37740588188171387, 0.3676000237464905, 0.03992605209350586, -0.11194015294313431, -1.044612169265747, 2.112546443939209, -1.092249870300293, 0.08748006820678711, 0.03992605209350586, 0.07520794868469238, -1.0017437934875488, 2.112546443939209, -1.1397199630737305, -0.08432793617248535, 0.31604599952697754, -0.8115279674530029, 0.5153820514678955, 0.5936999320983887, -0.8376059532165527, 0.44519996643066406]
velocity: []
effort: []
---
header: 
  seq: 22901
  stamp: 
    secs: 1383212616
    nsecs: 444655415
  frame_id: /torso
name: ['HeadYaw', 'HeadPitch', 'LShoulderPitch', 'LShoulderRoll', 'LElbowYaw', 'LElbowRoll', 'LWristYaw', 'LHand', 'LHipYawPitch', 'LHipRoll', 'LHipPitch', 'LKneePitch', 'LAnklePitch', 'LAnkleRoll', 'RHipYawPitch', 'RHipRoll', 'RHipPitch', 'RKneePitch', 'RAnklePitch', 'RAnkleRoll', 'RShoulderPitch', 'RShoulderRoll', 'RElbowYaw', 'RElbowRoll', 'RWristYaw', 'RHand']
position: [0.5077121257781982, 0.440216064453125, 0.6120240688323975, 0.5031099319458008, -0.24394798278808594, -0.23466014862060547, -0.37740588188171387, 0.3676000237464905, 0.03992605209350586, -0.11347413063049316, -1.044612169265747, 2.112546443939209, -1.092249870300293, 0.08748006820678711, 0.03992605209350586, 0.07520794868469238, -1.0017437934875488, 2.112546443939209, -1.1397199630737305, -0.08432793617248535, 0.31604599952697754, -0.8099939823150635, 0.5153820514678955, 0.5936999320983887, -0.8376059532165527, 0.44519996643066406]
velocity: []
effort: []
---
header: 
  seq: 22902
  stamp: 
    secs: 1383212616
    nsecs: 485547447
  frame_id: /torso
name: ['HeadYaw', 'HeadPitch', 'LShoulderPitch', 'LShoulderRoll', 'LElbowYaw', 'LElbowRoll', 'LWristYaw', 'LHand', 'LHipYawPitch', 'LHipRoll', 'LHipPitch', 'LKneePitch', 'LAnklePitch', 'LAnkleRoll', 'RHipYawPitch', 'RHipRoll', 'RHipPitch', 'RKneePitch', 'RAnklePitch', 'RAnkleRoll', 'RShoulderPitch', 'RShoulderRoll', 'RElbowYaw', 'RElbowRoll', 'RWristYaw', 'RHand']
position: [0.5092461109161377, 0.440216064453125, 0.6120240688323975, 0.5015759468078613, -0.24394798278808594, -0.23466014862060547, -0.37740588188171387, 0.36799997091293335, 0.03992605209350586, -0.11347413063049316, -1.044612169265747, 2.112546443939209, -1.092249870300293, 0.08748006820678711, 0.03992605209350586, 0.07520794868469238, -1.0017437934875488, 2.112546443939209, -1.1397199630737305, -0.08432793617248535, 0.31604599952697754, -0.8115279674530029, 0.513848066329956, 0.5936999320983887, -0.8376059532165527, 0.44519996643066406]
velocity: []
effort: []
---
header: 
  seq: 22903
  stamp: 
    secs: 1383212616
    nsecs: 524233165
  frame_id: /torso
name: ['HeadYaw', 'HeadPitch', 'LShoulderPitch', 'LShoulderRoll', 'LElbowYaw', 'LElbowRoll', 'LWristYaw', 'LHand', 'LHipYawPitch', 'LHipRoll', 'LHipPitch', 'LKneePitch', 'LAnklePitch', 'LAnkleRoll', 'RHipYawPitch', 'RHipRoll', 'RHipPitch', 'RKneePitch', 'RAnklePitch', 'RAnkleRoll', 'RShoulderPitch', 'RShoulderRoll', 'RElbowYaw', 'RElbowRoll', 'RWristYaw', 'RHand']
position: [0.5092461109161377, 0.440216064453125, 0.6120240688323975, 0.5031099319458008, -0.24394798278808594, -0.23466014862060547, -0.37740588188171387, 0.3676000237464905, 0.04146003723144531, -0.11347413063049316, -1.044612169265747, 2.112546443939209, -1.092249870300293, 0.08748006820678711, 0.04146003723144531, 0.07520794868469238, -1.0017437934875488, 2.112546443939209, -1.1397199630737305, -0.08432793617248535, 0.317579984664917, -0.8115279674530029, 0.5153820514678955, 0.5936999320983887, -0.8376059532165527, 0.44519996643066406]
velocity: []
effort: []
---
header: 
  seq: 22904
  stamp: 
    secs: 1383212616
    nsecs: 564464210
  frame_id: /torso
name: ['HeadYaw', 'HeadPitch', 'LShoulderPitch', 'LShoulderRoll', 'LElbowYaw', 'LElbowRoll', 'LWristYaw', 'LHand', 'LHipYawPitch', 'LHipRoll', 'LHipPitch', 'LKneePitch', 'LAnklePitch', 'LAnkleRoll', 'RHipYawPitch', 'RHipRoll', 'RHipPitch', 'RKneePitch', 'RAnklePitch', 'RAnkleRoll', 'RShoulderPitch', 'RShoulderRoll', 'RElbowYaw', 'RElbowRoll', 'RWristYaw', 'RHand']
position: [0.5092461109161377, 0.440216064453125, 0.6120240688323975, 0.5015759468078613, -0.24394798278808594, -0.23466014862060547, -0.37740588188171387, 0.3676000237464905, 0.03992605209350586, -0.11347413063049316, -1.0461461544036865, 2.112546443939209, -1.092249870300293, 0.08748006820678711, 0.03992605209350586, 0.07520794868469238, -1.0017437934875488, 2.112546443939209, -1.1397199630737305, -0.08432793617248535, 0.31604599952697754, -0.8115279674530029, 0.513848066329956, 0.5952339172363281, -0.8376059532165527, 0.44519996643066406]
velocity: []
effort: []
---
header: 
  seq: 22905
  stamp: 
    secs: 1383212616
    nsecs: 604415502
  frame_id: /torso
name: ['HeadYaw', 'HeadPitch', 'LShoulderPitch', 'LShoulderRoll', 'LElbowYaw', 'LElbowRoll', 'LWristYaw', 'LHand', 'LHipYawPitch', 'LHipRoll', 'LHipPitch', 'LKneePitch', 'LAnklePitch', 'LAnkleRoll', 'RHipYawPitch', 'RHipRoll', 'RHipPitch', 'RKneePitch', 'RAnklePitch', 'RAnkleRoll', 'RShoulderPitch', 'RShoulderRoll', 'RElbowYaw', 'RElbowRoll', 'RWristYaw', 'RHand']
position: [0.5092461109161377, 0.440216064453125, 0.6120240688323975, 0.5031099319458008, -0.24394798278808594, -0.23466014862060547, -0.37740588188171387, 0.3676000237464905, 0.03992605209350586, -0.11347413063049316, -1.044612169265747, 2.112546443939209, -1.092249870300293, 0.08748006820678711, 0.03992605209350586, 0.07520794868469238, -1.0002098083496094, 2.112546443939209, -1.1397199630737305, -0.08432793617248535, 0.31604599952697754, -0.8115279674530029, 0.513848066329956, 0.5936999320983887, -0.8376059532165527, 0.44519996643066406]
velocity: []
effort: []
---
header: 
  seq: 22906
  stamp: 
    secs: 1383212616
    nsecs: 644510460
  frame_id: /torso
name: ['HeadYaw', 'HeadPitch', 'LShoulderPitch', 'LShoulderRoll', 'LElbowYaw', 'LElbowRoll', 'LWristYaw', 'LHand', 'LHipYawPitch', 'LHipRoll', 'LHipPitch', 'LKneePitch', 'LAnklePitch', 'LAnkleRoll', 'RHipYawPitch', 'RHipRoll', 'RHipPitch', 'RKneePitch', 'RAnklePitch', 'RAnkleRoll', 'RShoulderPitch', 'RShoulderRoll', 'RElbowYaw', 'RElbowRoll', 'RWristYaw', 'RHand']
position: [0.5092461109161377, 0.440216064453125, 0.6120240688323975, 0.5031099319458008, -0.24394798278808594, -0.23466014862060547, -0.37740588188171387, 0.3676000237464905, 0.03992605209350586, -0.11194015294313431, -1.044612169265747, 2.112546443939209, -1.092249870300293, 0.08748006820678711, 0.03992605209350586, 0.07520794868469238, -1.0017437934875488, 2.112546443939209, -1.1397199630737305, -0.08432793617248535, 0.31604599952697754, -0.8115279674530029, 0.513848066329956, 0.5936999320983887, -0.8376059532165527, 0.4448000192642212]
velocity: []
effort: []
---
header: 
  seq: 22907
  stamp: 
    secs: 1383212616
    nsecs: 685094907
  frame_id: /torso
name: ['HeadYaw', 'HeadPitch', 'LShoulderPitch', 'LShoulderRoll', 'LElbowYaw', 'LElbowRoll', 'LWristYaw', 'LHand', 'LHipYawPitch', 'LHipRoll', 'LHipPitch', 'LKneePitch', 'LAnklePitch', 'LAnkleRoll', 'RHipYawPitch', 'RHipRoll', 'RHipPitch', 'RKneePitch', 'RAnklePitch', 'RAnkleRoll', 'RShoulderPitch', 'RShoulderRoll', 'RElbowYaw', 'RElbowRoll', 'RWristYaw', 'RHand']
position: [0.5092461109161377, 0.440216064453125, 0.6120240688323975, 0.5031099319458008, -0.24394798278808594, -0.23466014862060547, -0.37740588188171387, 0.3676000237464905, 0.04146003723144531, -0.11194015294313431, -1.044612169265747, 2.112546443939209, -1.092249870300293, 0.08748006820678711, 0.04146003723144531, 0.07520794868469238, -1.0017437934875488, 2.112546443939209, -1.1397199630737305, -0.08432793617248535, 0.31604599952697754, -0.8115279674530029, 0.513848066329956, 0.5952339172363281, -0.8376059532165527, 0.44519996643066406]
velocity: []
effort: []
---
header: 
  seq: 22908
  stamp: 
    secs: 1383212616
    nsecs: 724259918
  frame_id: /torso
name: ['HeadYaw', 'HeadPitch', 'LShoulderPitch', 'LShoulderRoll', 'LElbowYaw', 'LElbowRoll', 'LWristYaw', 'LHand', 'LHipYawPitch', 'LHipRoll', 'LHipPitch', 'LKneePitch', 'LAnklePitch', 'LAnkleRoll', 'RHipYawPitch', 'RHipRoll', 'RHipPitch', 'RKneePitch', 'RAnklePitch', 'RAnkleRoll', 'RShoulderPitch', 'RShoulderRoll', 'RElbowYaw', 'RElbowRoll', 'RWristYaw', 'RHand']
position: [0.5092461109161377, 0.440216064453125, 0.6120240688323975, 0.5031099319458008, -0.24394798278808594, -0.23466014862060547, -0.37740588188171387, 0.3676000237464905, 0.03992605209350586, -0.11347413063049316, -1.044612169265747, 2.112546443939209, -1.092249870300293, 0.08748006820678711, 0.03992605209350586, 0.07520794868469238, -1.0017437934875488, 2.112546443939209, -1.1397199630737305, -0.08432793617248535, 0.31604599952697754, -0.8115279674530029, 0.513848066329956, 0.5936999320983887, -0.8376059532165527, 0.44519996643066406]
velocity: []
effort: []
---
header: 
  seq: 22909
  stamp: 
    secs: 1383212616
    nsecs: 764455343
  frame_id: /torso
name: ['HeadYaw', 'HeadPitch', 'LShoulderPitch', 'LShoulderRoll', 'LElbowYaw', 'LElbowRoll', 'LWristYaw', 'LHand', 'LHipYawPitch', 'LHipRoll', 'LHipPitch', 'LKneePitch', 'LAnklePitch', 'LAnkleRoll', 'RHipYawPitch', 'RHipRoll', 'RHipPitch', 'RKneePitch', 'RAnklePitch', 'RAnkleRoll', 'RShoulderPitch', 'RShoulderRoll', 'RElbowYaw', 'RElbowRoll', 'RWristYaw', 'RHand']
position: [0.5092461109161377, 0.440216064453125, 0.6120240688323975, 0.5031099319458008, -0.24394798278808594, -0.23466014862060547, -0.37740588188171387, 0.3676000237464905, 0.03992605209350586, -0.11347413063049316, -1.044612169265747, 2.112546443939209, -1.092249870300293, 0.08748006820678711, 0.03992605209350586, 0.07520794868469238, -1.0017437934875488, 2.112546443939209, -1.1397199630737305, -0.08432793617248535, 0.31604599952697754, -0.8115279674530029, 0.513848066329956, 0.5936999320983887, -0.8376059532165527, 0.44519996643066406]
velocity: []
effort: []
---
header: 
  seq: 22910
  stamp: 
    secs: 1383212616
    nsecs: 804575444
  frame_id: /torso
name: ['HeadYaw', 'HeadPitch', 'LShoulderPitch', 'LShoulderRoll', 'LElbowYaw', 'LElbowRoll', 'LWristYaw', 'LHand', 'LHipYawPitch', 'LHipRoll', 'LHipPitch', 'LKneePitch', 'LAnklePitch', 'LAnkleRoll', 'RHipYawPitch', 'RHipRoll', 'RHipPitch', 'RKneePitch', 'RAnklePitch', 'RAnkleRoll', 'RShoulderPitch', 'RShoulderRoll', 'RElbowYaw', 'RElbowRoll', 'RWristYaw', 'RHand']
position: [0.5077121257781982, 0.440216064453125, 0.6120240688323975, 0.5031099319458008, -0.24394798278808594, -0.23466014862060547, -0.37740588188171387, 0.3676000237464905, 0.04146003723144531, -0.11347413063049316, -1.044612169265747, 2.112546443939209, -1.092249870300293, 0.08748006820678711, 0.04146003723144531, 0.07520794868469238, -1.0017437934875488, 2.112546443939209, -1.1397199630737305, -0.08432793617248535, 0.31604599952697754, -0.8115279674530029, 0.513848066329956, 0.5936999320983887, -0.8376059532165527, 0.44519996643066406]
velocity: []
effort: []
---
header: 
  seq: 22911
  stamp: 
    secs: 1383212616
    nsecs: 844598535
  frame_id: /torso
name: ['HeadYaw', 'HeadPitch', 'LShoulderPitch', 'LShoulderRoll', 'LElbowYaw', 'LElbowRoll', 'LWristYaw', 'LHand', 'LHipYawPitch', 'LHipRoll', 'LHipPitch', 'LKneePitch', 'LAnklePitch', 'LAnkleRoll', 'RHipYawPitch', 'RHipRoll', 'RHipPitch', 'RKneePitch', 'RAnklePitch', 'RAnkleRoll', 'RShoulderPitch', 'RShoulderRoll', 'RElbowYaw', 'RElbowRoll', 'RWristYaw', 'RHand']
position: [0.5077121257781982, 0.440216064453125, 0.6120240688323975, 0.5031099319458008, -0.24394798278808594, -0.23619413375854492, -0.37740588188171387, 0.3676000237464905, 0.03992605209350586, -0.11194015294313431, -1.044612169265747, 2.112546443939209, -1.092249870300293, 0.08748006820678711, 0.03992605209350586, 0.07520794868469238, -1.0002098083496094, 2.112546443939209, -1.1397199630737305, -0.08432793617248535, 0.31604599952697754, -0.8115279674530029, 0.513848066329956, 0.5936999320983887, -0.8376059532165527, 0.44519996643066406]
velocity: []
effort: []
---
header: 
  seq: 22912
  stamp: 
    secs: 1383212616
    nsecs: 885264418
  frame_id: /torso
name: ['HeadYaw', 'HeadPitch', 'LShoulderPitch', 'LShoulderRoll', 'LElbowYaw', 'LElbowRoll', 'LWristYaw', 'LHand', 'LHipYawPitch', 'LHipRoll', 'LHipPitch', 'LKneePitch', 'LAnklePitch', 'LAnkleRoll', 'RHipYawPitch', 'RHipRoll', 'RHipPitch', 'RKneePitch', 'RAnklePitch', 'RAnkleRoll', 'RShoulderPitch', 'RShoulderRoll', 'RElbowYaw', 'RElbowRoll', 'RWristYaw', 'RHand']
position: [0.5092461109161377, 0.440216064453125, 0.6120240688323975, 0.5031099319458008, -0.24394798278808594, -0.23466014862060547, -0.37740588188171387, 0.3676000237464905, 0.04146003723144531, -0.11347413063049316, -1.044612169265747, 2.112546443939209, -1.092249870300293, 0.08748006820678711, 0.04146003723144531, 0.07674193382263184, -1.0017437934875488, 2.112546443939209, -1.1397199630737305, -0.08432793617248535, 0.31604599952697754, -0.8115279674530029, 0.5153820514678955, 0.5936999320983887, -0.8376059532165527, 0.44519996643066406]
velocity: []
effort: []
---
header: 
  seq: 22913
  stamp: 
    secs: 1383212616
    nsecs: 924212567
  frame_id: /torso
name: ['HeadYaw', 'HeadPitch', 'LShoulderPitch', 'LShoulderRoll', 'LElbowYaw', 'LElbowRoll', 'LWristYaw', 'LHand', 'LHipYawPitch', 'LHipRoll', 'LHipPitch', 'LKneePitch', 'LAnklePitch', 'LAnkleRoll', 'RHipYawPitch', 'RHipRoll', 'RHipPitch', 'RKneePitch', 'RAnklePitch', 'RAnkleRoll', 'RShoulderPitch', 'RShoulderRoll', 'RElbowYaw', 'RElbowRoll', 'RWristYaw', 'RHand']
position: [0.5092461109161377, 0.440216064453125, 0.6120240688323975, 0.5031099319458008, -0.24394798278808594, -0.23466014862060547, -0.37740588188171387, 0.3676000237464905, 0.03992605209350586, -0.11347413063049316, -1.044612169265747, 2.112546443939209, -1.092249870300293, 0.08748006820678711, 0.03992605209350586, 0.07520794868469238, -1.0017437934875488, 2.112546443939209, -1.1397199630737305, -0.08432793617248535, 0.31604599952697754, -0.8115279674530029, 0.5153820514678955, 0.5936999320983887, -0.8376059532165527, 0.44519996643066406]
velocity: []
effort: []
---
header: 
  seq: 22914
  stamp: 
    secs: 1383212616
    nsecs: 964416375
  frame_id: /torso
name: ['HeadYaw', 'HeadPitch', 'LShoulderPitch', 'LShoulderRoll', 'LElbowYaw', 'LElbowRoll', 'LWristYaw', 'LHand', 'LHipYawPitch', 'LHipRoll', 'LHipPitch', 'LKneePitch', 'LAnklePitch', 'LAnkleRoll', 'RHipYawPitch', 'RHipRoll', 'RHipPitch', 'RKneePitch', 'RAnklePitch', 'RAnkleRoll', 'RShoulderPitch', 'RShoulderRoll', 'RElbowYaw', 'RElbowRoll', 'RWristYaw', 'RHand']
position: [0.5077121257781982, 0.440216064453125, 0.6120240688323975, 0.5031099319458008, -0.24394798278808594, -0.23466014862060547, -0.37740588188171387, 0.3676000237464905, 0.03992605209350586, -0.11347413063049316, -1.044612169265747, 2.112546443939209, -1.092249870300293, 0.08748006820678711, 0.03992605209350586, 0.07520794868469238, -1.0002098083496094, 2.112546443939209, -1.1397199630737305, -0.08432793617248535, 0.31604599952697754, -0.8115279674530029, 0.513848066329956, 0.5936999320983887, -0.8376059532165527, 0.44519996643066406]
velocity: []
effort: []
---
header: 
  seq: 22915
  stamp: 
    secs: 1383212617
    nsecs: 4396023
  frame_id: /torso
name: ['HeadYaw', 'HeadPitch', 'LShoulderPitch', 'LShoulderRoll', 'LElbowYaw', 'LElbowRoll', 'LWristYaw', 'LHand', 'LHipYawPitch', 'LHipRoll', 'LHipPitch', 'LKneePitch', 'LAnklePitch', 'LAnkleRoll', 'RHipYawPitch', 'RHipRoll', 'RHipPitch', 'RKneePitch', 'RAnklePitch', 'RAnkleRoll', 'RShoulderPitch', 'RShoulderRoll', 'RElbowYaw', 'RElbowRoll', 'RWristYaw', 'RHand']
position: [0.5077121257781982, 0.440216064453125, 0.6120240688323975, 0.5031099319458008, -0.24394798278808594, -0.23466014862060547, -0.37740588188171387, 0.3676000237464905, 0.04146003723144531, -0.11194015294313431, -1.044612169265747, 2.112546443939209, -1.092249870300293, 0.08748006820678711, 0.04146003723144531, 0.07520794868469238, -1.0017437934875488, 2.112546443939209, -1.1397199630737305, -0.0858621597290039, 0.31604599952697754, -0.8115279674530029, 0.513848066329956, 0.5936999320983887, -0.8376059532165527, 0.44519996643066406]
velocity: []
effort: []
---
header: 
  seq: 22916
  stamp: 
    secs: 1383212617
    nsecs: 44456479
  frame_id: /torso
name: ['HeadYaw', 'HeadPitch', 'LShoulderPitch', 'LShoulderRoll', 'LElbowYaw', 'LElbowRoll', 'LWristYaw', 'LHand', 'LHipYawPitch', 'LHipRoll', 'LHipPitch', 'LKneePitch', 'LAnklePitch', 'LAnkleRoll', 'RHipYawPitch', 'RHipRoll', 'RHipPitch', 'RKneePitch', 'RAnklePitch', 'RAnkleRoll', 'RShoulderPitch', 'RShoulderRoll', 'RElbowYaw', 'RElbowRoll', 'RWristYaw', 'RHand']
position: [0.5092461109161377, 0.440216064453125, 0.6120240688323975, 0.5031099319458008, -0.24394798278808594, -0.23466014862060547, -0.37740588188171387, 0.36799997091293335, 0.03992605209350586, -0.11194015294313431, -1.044612169265747, 2.112546443939209, -1.092249870300293, 0.08748006820678711, 0.03992605209350586, 0.07520794868469238, -1.0017437934875488, 2.112546443939209, -1.1397199630737305, -0.08432793617248535, 0.31604599952697754, -0.8115279674530029, 0.5153820514678955, 0.5936999320983887, -0.8376059532165527, 0.44519996643066406]
velocity: []
effort: []
---
header: 
  seq: 22917
  stamp: 
    secs: 1383212617
    nsecs: 85057723
  frame_id: /torso
name: ['HeadYaw', 'HeadPitch', 'LShoulderPitch', 'LShoulderRoll', 'LElbowYaw', 'LElbowRoll', 'LWristYaw', 'LHand', 'LHipYawPitch', 'LHipRoll', 'LHipPitch', 'LKneePitch', 'LAnklePitch', 'LAnkleRoll', 'RHipYawPitch', 'RHipRoll', 'RHipPitch', 'RKneePitch', 'RAnklePitch', 'RAnkleRoll', 'RShoulderPitch', 'RShoulderRoll', 'RElbowYaw', 'RElbowRoll', 'RWristYaw', 'RHand']
position: [0.5077121257781982, 0.440216064453125, 0.6120240688323975, 0.5031099319458008, -0.24394798278808594, -0.23466014862060547, -0.3758718967437744, 0.3676000237464905, 0.03992605209350586, -0.11347413063049316, -1.044612169265747, 2.112546443939209, -1.092249870300293, 0.08748006820678711, 0.03992605209350586, 0.07520794868469238, -1.0017437934875488, 2.112546443939209, -1.1397199630737305, -0.08432793617248535, 0.31604599952697754, -0.8115279674530029, 0.513848066329956, 0.5936999320983887, -0.8376059532165527, 0.44519996643066406]
velocity: []
effort: []
---
header: 
  seq: 22918
  stamp: 
    secs: 1383212617
    nsecs: 124381379
  frame_id: /torso
name: ['HeadYaw', 'HeadPitch', 'LShoulderPitch', 'LShoulderRoll', 'LElbowYaw', 'LElbowRoll', 'LWristYaw', 'LHand', 'LHipYawPitch', 'LHipRoll', 'LHipPitch', 'LKneePitch', 'LAnklePitch', 'LAnkleRoll', 'RHipYawPitch', 'RHipRoll', 'RHipPitch', 'RKneePitch', 'RAnklePitch', 'RAnkleRoll', 'RShoulderPitch', 'RShoulderRoll', 'RElbowYaw', 'RElbowRoll', 'RWristYaw', 'RHand']
position: [0.5077121257781982, 0.440216064453125, 0.6120240688323975, 0.5031099319458008, -0.24394798278808594, -0.23619413375854492, -0.37740588188171387, 0.3676000237464905, 0.04146003723144531, -0.11194015294313431, -1.044612169265747, 2.112546443939209, -1.092249870300293, 0.08748006820678711, 0.04146003723144531, 0.07520794868469238, -1.0017437934875488, 2.112546443939209, -1.1397199630737305, -0.08432793617248535, 0.31604599952697754, -0.8115279674530029, 0.513848066329956, 0.5936999320983887, -0.8376059532165527, 0.44519996643066406]
velocity: []
effort: []
---
header: 
  seq: 22919
  stamp: 
    secs: 1383212617
    nsecs: 164542443
  frame_id: /torso
name: ['HeadYaw', 'HeadPitch', 'LShoulderPitch', 'LShoulderRoll', 'LElbowYaw', 'LElbowRoll', 'LWristYaw', 'LHand', 'LHipYawPitch', 'LHipRoll', 'LHipPitch', 'LKneePitch', 'LAnklePitch', 'LAnkleRoll', 'RHipYawPitch', 'RHipRoll', 'RHipPitch', 'RKneePitch', 'RAnklePitch', 'RAnkleRoll', 'RShoulderPitch', 'RShoulderRoll', 'RElbowYaw', 'RElbowRoll', 'RWristYaw', 'RHand']
position: [0.5092461109161377, 0.440216064453125, 0.6120240688323975, 0.5031099319458008, -0.24394798278808594, -0.23466014862060547, -0.37740588188171387, 0.36799997091293335, 0.03992605209350586, -0.11194015294313431, -1.044612169265747, 2.112546443939209, -1.092249870300293, 0.08748006820678711, 0.03992605209350586, 0.07520794868469238, -1.0017437934875488, 2.112546443939209, -1.1397199630737305, -0.08432793617248535, 0.31604599952697754, -0.8115279674530029, 0.513848066329956, 0.5936999320983887, -0.8376059532165527, 0.44519996643066406]
velocity: []
effort: []
---
header: 
  seq: 22920
  stamp: 
    secs: 1383212617
    nsecs: 204460281
  frame_id: /torso
name: ['HeadYaw', 'HeadPitch', 'LShoulderPitch', 'LShoulderRoll', 'LElbowYaw', 'LElbowRoll', 'LWristYaw', 'LHand', 'LHipYawPitch', 'LHipRoll', 'LHipPitch', 'LKneePitch', 'LAnklePitch', 'LAnkleRoll', 'RHipYawPitch', 'RHipRoll', 'RHipPitch', 'RKneePitch', 'RAnklePitch', 'RAnkleRoll', 'RShoulderPitch', 'RShoulderRoll', 'RElbowYaw', 'RElbowRoll', 'RWristYaw', 'RHand']
position: [0.5092461109161377, 0.440216064453125, 0.6120240688323975, 0.5015759468078613, -0.24394798278808594, -0.23466014862060547, -0.37740588188171387, 0.3676000237464905, 0.04146003723144531, -0.11194015294313431, -1.044612169265747, 2.112546443939209, -1.092249870300293, 0.08748006820678711, 0.04146003723144531, 0.07520794868469238, -1.0017437934875488, 2.112546443939209, -1.1397199630737305, -0.0858621597290039, 0.31604599952697754, -0.8115279674530029, 0.513848066329956, 0.5936999320983887, -0.8376059532165527, 0.44519996643066406]
velocity: []
effort: []
---
header: 
  seq: 22921
  stamp: 
    secs: 1383212617
    nsecs: 244478482
  frame_id: /torso
name: ['HeadYaw', 'HeadPitch', 'LShoulderPitch', 'LShoulderRoll', 'LElbowYaw', 'LElbowRoll', 'LWristYaw', 'LHand', 'LHipYawPitch', 'LHipRoll', 'LHipPitch', 'LKneePitch', 'LAnklePitch', 'LAnkleRoll', 'RHipYawPitch', 'RHipRoll', 'RHipPitch', 'RKneePitch', 'RAnklePitch', 'RAnkleRoll', 'RShoulderPitch', 'RShoulderRoll', 'RElbowYaw', 'RElbowRoll', 'RWristYaw', 'RHand']
position: [0.5092461109161377, 0.440216064453125, 0.6120240688323975, 0.5031099319458008, -0.24394798278808594, -0.23619413375854492, -0.37740588188171387, 0.36799997091293335, 0.04146003723144531, -0.11347413063049316, -1.044612169265747, 2.112546443939209, -1.092249870300293, 0.08748006820678711, 0.04146003723144531, 0.07520794868469238, -1.0017437934875488, 2.112546443939209, -1.1397199630737305, -0.08432793617248535, 0.31604599952697754, -0.8099939823150635, 0.513848066329956, 0.5936999320983887, -0.8376059532165527, 0.44519996643066406]
velocity: []
effort: []
---
header: 
  seq: 22922
  stamp: 
    secs: 1383212617
    nsecs: 284991830
  frame_id: /torso
name: ['HeadYaw', 'HeadPitch', 'LShoulderPitch', 'LShoulderRoll', 'LElbowYaw', 'LElbowRoll', 'LWristYaw', 'LHand', 'LHipYawPitch', 'LHipRoll', 'LHipPitch', 'LKneePitch', 'LAnklePitch', 'LAnkleRoll', 'RHipYawPitch', 'RHipRoll', 'RHipPitch', 'RKneePitch', 'RAnklePitch', 'RAnkleRoll', 'RShoulderPitch', 'RShoulderRoll', 'RElbowYaw', 'RElbowRoll', 'RWristYaw', 'RHand']
position: [0.5077121257781982, 0.440216064453125, 0.6120240688323975, 0.5015759468078613, -0.24394798278808594, -0.23466014862060547, -0.37740588188171387, 0.3676000237464905, 0.03992605209350586, -0.11194015294313431, -1.044612169265747, 2.112546443939209, -1.092249870300293, 0.08748006820678711, 0.03992605209350586, 0.07520794868469238, -1.0017437934875488, 2.112546443939209, -1.1397199630737305, -0.08432793617248535, 0.31604599952697754, -0.8115279674530029, 0.513848066329956, 0.5936999320983887, -0.8376059532165527, 0.44519996643066406]
velocity: []
effort: []
---
header: 
  seq: 22923
  stamp: 
    secs: 1383212617
    nsecs: 324235342
  frame_id: /torso
name: ['HeadYaw', 'HeadPitch', 'LShoulderPitch', 'LShoulderRoll', 'LElbowYaw', 'LElbowRoll', 'LWristYaw', 'LHand', 'LHipYawPitch', 'LHipRoll', 'LHipPitch', 'LKneePitch', 'LAnklePitch', 'LAnkleRoll', 'RHipYawPitch', 'RHipRoll', 'RHipPitch', 'RKneePitch', 'RAnklePitch', 'RAnkleRoll', 'RShoulderPitch', 'RShoulderRoll', 'RElbowYaw', 'RElbowRoll', 'RWristYaw', 'RHand']
position: [0.5092461109161377, 0.440216064453125, 0.6120240688323975, 0.5031099319458008, -0.24394798278808594, -0.23466014862060547, -0.3758718967437744, 0.3676000237464905, 0.03992605209350586, -0.11194015294313431, -1.044612169265747, 2.112546443939209, -1.092249870300293, 0.08748006820678711, 0.03992605209350586, 0.07520794868469238, -1.0017437934875488, 2.112546443939209, -1.1397199630737305, -0.08432793617248535, 0.317579984664917, -0.8115279674530029, 0.513848066329956, 0.5936999320983887, -0.8376059532165527, 0.44519996643066406]
velocity: []
effort: []
---
header: 
  seq: 22924
  stamp: 
    secs: 1383212617
    nsecs: 364488424
  frame_id: /torso
name: ['HeadYaw', 'HeadPitch', 'LShoulderPitch', 'LShoulderRoll', 'LElbowYaw', 'LElbowRoll', 'LWristYaw', 'LHand', 'LHipYawPitch', 'LHipRoll', 'LHipPitch', 'LKneePitch', 'LAnklePitch', 'LAnkleRoll', 'RHipYawPitch', 'RHipRoll', 'RHipPitch', 'RKneePitch', 'RAnklePitch', 'RAnkleRoll', 'RShoulderPitch', 'RShoulderRoll', 'RElbowYaw', 'RElbowRoll', 'RWristYaw', 'RHand']
position: [0.5077121257781982, 0.440216064453125, 0.6120240688323975, 0.5031099319458008, -0.24394798278808594, -0.23466014862060547, -0.37740588188171387, 0.3676000237464905, 0.03992605209350586, -0.11347413063049316, -1.044612169265747, 2.112546443939209, -1.092249870300293, 0.08748006820678711, 0.03992605209350586, 0.07520794868469238, -1.0017437934875488, 2.112546443939209, -1.1397199630737305, -0.08432793617248535, 0.31604599952697754, -0.8099939823150635, 0.513848066329956, 0.5936999320983887, -0.8376059532165527, 0.44519996643066406]
velocity: []
effort: []
---
header: 
  seq: 22925
  stamp: 
    secs: 1383212617
    nsecs: 404463986
  frame_id: /torso
name: ['HeadYaw', 'HeadPitch', 'LShoulderPitch', 'LShoulderRoll', 'LElbowYaw', 'LElbowRoll', 'LWristYaw', 'LHand', 'LHipYawPitch', 'LHipRoll', 'LHipPitch', 'LKneePitch', 'LAnklePitch', 'LAnkleRoll', 'RHipYawPitch', 'RHipRoll', 'RHipPitch', 'RKneePitch', 'RAnklePitch', 'RAnkleRoll', 'RShoulderPitch', 'RShoulderRoll', 'RElbowYaw', 'RElbowRoll', 'RWristYaw', 'RHand']
position: [0.5092461109161377, 0.440216064453125, 0.6120240688323975, 0.5031099319458008, -0.24394798278808594, -0.23466014862060547, -0.37740588188171387, 0.3676000237464905, 0.03992605209350586, -0.11194015294313431, -1.044612169265747, 2.112546443939209, -1.092249870300293, 0.08748006820678711, 0.03992605209350586, 0.07520794868469238, -1.0017437934875488, 2.112546443939209, -1.1397199630737305, -0.08432793617248535, 0.31604599952697754, -0.8099939823150635, 0.513848066329956, 0.5936999320983887, -0.8376059532165527, 0.44519996643066406]
velocity: []
effort: []
---
header: 
  seq: 22926
  stamp: 
    secs: 1383212617
    nsecs: 444354760
  frame_id: /torso
name: ['HeadYaw', 'HeadPitch', 'LShoulderPitch', 'LShoulderRoll', 'LElbowYaw', 'LElbowRoll', 'LWristYaw', 'LHand', 'LHipYawPitch', 'LHipRoll', 'LHipPitch', 'LKneePitch', 'LAnklePitch', 'LAnkleRoll', 'RHipYawPitch', 'RHipRoll', 'RHipPitch', 'RKneePitch', 'RAnklePitch', 'RAnkleRoll', 'RShoulderPitch', 'RShoulderRoll', 'RElbowYaw', 'RElbowRoll', 'RWristYaw', 'RHand']
position: [0.5092461109161377, 0.440216064453125, 0.6120240688323975, 0.5031099319458008, -0.24394798278808594, -0.23466014862060547, -0.37740588188171387, 0.3676000237464905, 0.03992605209350586, -0.11347413063049316, -1.044612169265747, 2.112546443939209, -1.092249870300293, 0.08748006820678711, 0.03992605209350586, 0.07520794868469238, -1.0002098083496094, 2.112546443939209, -1.1397199630737305, -0.08432793617248535, 0.31604599952697754, -0.8115279674530029, 0.513848066329956, 0.5936999320983887, -0.8376059532165527, 0.44519996643066406]
velocity: []
effort: []
---
header: 
  seq: 22927
  stamp: 
    secs: 1383212617
    nsecs: 484977725
  frame_id: /torso
name: ['HeadYaw', 'HeadPitch', 'LShoulderPitch', 'LShoulderRoll', 'LElbowYaw', 'LElbowRoll', 'LWristYaw', 'LHand', 'LHipYawPitch', 'LHipRoll', 'LHipPitch', 'LKneePitch', 'LAnklePitch', 'LAnkleRoll', 'RHipYawPitch', 'RHipRoll', 'RHipPitch', 'RKneePitch', 'RAnklePitch', 'RAnkleRoll', 'RShoulderPitch', 'RShoulderRoll', 'RElbowYaw', 'RElbowRoll', 'RWristYaw', 'RHand']
position: [0.5077121257781982, 0.440216064453125, 0.6120240688323975, 0.5031099319458008, -0.24394798278808594, -0.23619413375854492, -0.3758718967437744, 0.3676000237464905, 0.03992605209350586, -0.11194015294313431, -1.044612169265747, 2.112546443939209, -1.092249870300293, 0.08748006820678711, 0.03992605209350586, 0.07520794868469238, -1.0017437934875488, 2.112546443939209, -1.1397199630737305, -0.08432793617248535, 0.317579984664917, -0.8115279674530029, 0.5153820514678955, 0.5936999320983887, -0.8376059532165527, 0.44519996643066406]
velocity: []
effort: []
---
header: 
  seq: 22928
  stamp: 
    secs: 1383212617
    nsecs: 524410335
  frame_id: /torso
name: ['HeadYaw', 'HeadPitch', 'LShoulderPitch', 'LShoulderRoll', 'LElbowYaw', 'LElbowRoll', 'LWristYaw', 'LHand', 'LHipYawPitch', 'LHipRoll', 'LHipPitch', 'LKneePitch', 'LAnklePitch', 'LAnkleRoll', 'RHipYawPitch', 'RHipRoll', 'RHipPitch', 'RKneePitch', 'RAnklePitch', 'RAnkleRoll', 'RShoulderPitch', 'RShoulderRoll', 'RElbowYaw', 'RElbowRoll', 'RWristYaw', 'RHand']
position: [0.5092461109161377, 0.440216064453125, 0.6120240688323975, 0.5015759468078613, -0.24394798278808594, -0.23466014862060547, -0.37740588188171387, 0.3676000237464905, 0.03992605209350586, -0.11347413063049316, -1.044612169265747, 2.112546443939209, -1.092249870300293, 0.08748006820678711, 0.03992605209350586, 0.07520794868469238, -1.0002098083496094, 2.112546443939209, -1.1397199630737305, -0.08432793617248535, 0.31604599952697754, -0.8115279674530029, 0.513848066329956, 0.5936999320983887, -0.8376059532165527, 0.44519996643066406]
velocity: []
effort: []
---
header: 
  seq: 22929
  stamp: 
    secs: 1383212617
    nsecs: 564581805
  frame_id: /torso
name: ['HeadYaw', 'HeadPitch', 'LShoulderPitch', 'LShoulderRoll', 'LElbowYaw', 'LElbowRoll', 'LWristYaw', 'LHand', 'LHipYawPitch', 'LHipRoll', 'LHipPitch', 'LKneePitch', 'LAnklePitch', 'LAnkleRoll', 'RHipYawPitch', 'RHipRoll', 'RHipPitch', 'RKneePitch', 'RAnklePitch', 'RAnkleRoll', 'RShoulderPitch', 'RShoulderRoll', 'RElbowYaw', 'RElbowRoll', 'RWristYaw', 'RHand']
position: [0.5077121257781982, 0.440216064453125, 0.6120240688323975, 0.5031099319458008, -0.24394798278808594, -0.23466014862060547, -0.37740588188171387, 0.3676000237464905, 0.04146003723144531, -0.11194015294313431, -1.044612169265747, 2.112546443939209, -1.092249870300293, 0.08594608306884766, 0.04146003723144531, 0.07520794868469238, -1.0017437934875488, 2.112546443939209, -1.1397199630737305, -0.08432793617248535, 0.31604599952697754, -0.8115279674530029, 0.513848066329956, 0.5936999320983887, -0.8376059532165527, 0.44519996643066406]
velocity: []
